ISO3,NAME1,AREA,LON,LAT,UN_2000_E,LON,LAT,UN_2005_E,LON,LAT,UN_2010_E,LON,LAT,UN_2015_E,LON,LAT,UN_2020_E,LON,LAT
AUS,Tasmania,68468.35642,146.6307676,-41.94694072,439952,146.9860698,-42.07357174,466823,146.9860378,-42.07354627,510319,146.9860326,-42.07352626,551917,146.9860494,-42.07352859,589431,146.9860574,-42.07354765
AUS,Western Australia,2536343.084,122.879742,-25.18459887,1986547,116.4889706,-31.48906782,2107933,116.4890542,-31.48897596,2304387,116.4889691,-31.48902322,2492313,116.4889835,-31.48900873,2661811,116.4889485,-31.48899485
AUS,Other Territories,218.2509174,125.0574492,-17.78684368,2672,114.893831,-13.72208328,2835,114.8745007,-13.71380347,3101,114.8304457,-13.69886797,3352,114.8134373,-13.69142398,3580,114.7597467,-13.67207609
AUS,Queensland,1738048.018,144.6603525,-22.39806325,3845482,151.7861893,-25.7688131,4080645,151.7862174,-25.76883747,4460962,151.7861926,-25.76876355,4824773,151.7862356,-25.76879913,5152836,151.7862408,-25.76875095
AUS,South Australia,986906.4625,135.9207975,-30.01469403,1418805,138.6283174,-34.84201142,1505431,138.6283213,-34.84202213,1645603,138.6283229,-34.84204178,1779675,138.6283168,-34.84204212,1900493,138.6283102,-34.84203738
AUS,Northern Territory,1353601.321,133.5648265,-19.28441289,186830,132.2474183,-14.77614395,198292,132.2474658,-14.77575709,216813,132.2469681,-14.77505488,234556,132.2467276,-14.77436599,250560,132.2463952,-14.77365274
AUS,Australian Capital Territory,2363.138462,149.0030272,-35.48831346,317419,149.0935634,-35.2988189,336842,149.0935659,-35.29882366,368257,149.0935692,-35.29881511,398288,149.0935713,-35.29881111,425404,149.0935788,-35.29880694
AUS,Victoria,227730.6761,144.3194626,-36.82808481,4759411,144.957674,-37.71346172,5050075,144.9576742,-37.71347173,5520470,144.957668,-37.71347595,5970388,144.9576758,-37.71348842,6376059,144.9576803,-37.71349782
AUS,New South Wales,802997.6448,147.1075379,-32.09532208,6147825,150.9406556,-33.43323468,6523192,150.9406542,-33.43325042,7130409,150.9406759,-33.43325226,7711239,150.9406876,-33.43325725,8234982,150.940709,-33.4332622
RUS,Burjatija,350840.2907,109.9176468,53.44510773,987371,107.795418,51.97131797,973638,107.7954075,51.97131121,974075,107.7954133,51.97131196,978234,107.7954115,51.97131064,975031,107.7954067,51.97130673
RUS,Krasnojarskij,2316200.234,105.9354571,65.39441898,3013182,97.98769453,56.97056855,2901259,97.98770198,56.97057082,2834158,97.98769744,56.9705663,2779182,97.9876876,56.97056564,2704819,97.98769783,56.97057036
RUS,Omskaja,140692.8053,73.16005768,56.04669762,2113574,73.31614776,55.12333251,2031916,73.31614606,55.12333383,1981839,73.3161455,55.12333134,1940388,73.31614578,55.12333385,1885537,73.31614616,55.12333444
RUS,Chuvashskaja,18361.60437,47.0786415,55.48479428,1334918,47.22071806,55.81681625,1284647,47.2207183,55.81681682,1254264,47.22071713,55.81681557,1229272,47.22071647,55.8168164,1195738,47.22071741,55.81681614
RUS,Magadanskaja,460827.3506,153.9536608,62.60331965,190526,151.0883425,60.52341181,171887,151.0883876,60.52343736,157328,151.0884084,60.52345356,144551,151.0884143,60.52344424,131815,151.0883444,60.52341982
RUS,Bashkortostan,142713.3761,56.46072064,54.22038991,4128332,55.88937937,54.41143477,4074999,55.8893789,54.41143555,4080893,55.8893788,54.41143489,4102407,55.88937777,54.41143445,4093085,55.88937928,54.41143547
RUS,Kaliningradskaja,13531.345,21.45041297,54.70425469,962381,20.81301851,54.72770624,946216,20.81301744,54.72770567,943860,20.81301788,54.72770591,945111,20.81301965,54.72770519,939257,20.81301882,54.7277058
RUS,Kaluzhskaja,29782.74981,35.43038731,54.36586057,1053531,35.95627774,54.58089114,1025663,35.95627621,54.58089237,1013063,35.95627492,54.5808911,1004445,35.95627484,54.58089108,988420,35.9562738,54.58089198
RUS,Karelija,176733.723,33.054262,63.34124003,738567,33.57632183,62.4124992,685182,33.5763164,62.41249791,644906,33.57631922,62.4124946,609318,33.57631664,62.41249819,571374,33.57631038,62.41250307
RUS,Adygeja,7838.563867,39.99436377,44.59402694,450645,39.83803583,44.73645169,442550,39.8380385,44.73645149,440925,39.83803645,44.73645181,440982,39.83803747,44.73645087,437734,39.83803676,44.7364525
RUS,Tjumenskaja,1372894.822,70.32695303,63.78149486,3245444,67.95796202,60.58370988,3299330,67.95796112,60.58370964,3402926,67.95796182,60.58370797,3523183,67.95796236,60.58370987,3620308,67.9579633,60.58371145
RUS,Kamchatskij ,462134.239,162.4697261,58.41911264,370047,159.0966404,53.71884338,343107,159.0966358,53.71884493,322759,159.0966392,53.71885445,304777,159.0966196,53.71882133,285635,159.0966374,53.71882328
RUS,Vladimirskaja,30069.88904,40.61162853,56.03108274,1550742,40.59566694,56.07762225,1487058,40.59566863,56.07762205,1446739,40.59566527,56.07762232,1412898,40.59566638,56.07762155,1369484,40.595668,56.07762163
RUS,Ul'janovskaja ,37163.98112,47.92191303,53.87921554,1411730,48.27086324,54.13083797,1342646,48.27086212,54.13083734,1295528,48.27086204,54.13083896,1254840,48.27086193,54.13083912,1206305,48.27086279,54.13083986
RUS,Kurskaja,29885.47388,36.09959585,51.67811547,1268575,36.0040257,51.73404094,1188383,36.00402836,51.73404132,1129460,36.00402493,51.73404013,1077560,36.00402902,51.73404103,1020332,36.00402583,51.73404071
RUS,Altajskij,167462.5287,82.16751243,52.58609116,2666875,82.68341919,52.80697658,2524685,82.68342164,52.80697662,2424862,82.68342372,52.80697704,2337889,82.68341928,52.8069763,2237108,82.68342331,52.80697717
RUS,Ingushetija,3179.454388,44.94228877,43.12262387,483955,44.91692477,43.21967771,444069,44.91692466,43.21967758,413399,44.91692461,43.21967751,386319,44.91692444,43.21967861,358302,44.91692418,43.21967887
RUS,Murmanskaja,142555.8665,34.59540967,67.7685946,922177,32.86368596,68.46816786,851182,32.8636902,68.46816723,797087,32.8636866,68.46816786,749286,32.86368628,68.46816829,699059,32.86368246,68.4681674
RUS,Leningradskaja,78066.59259,31.67243217,59.95546338,1663926,30.67312928,59.85807781,1679792,30.67312707,59.8580777,1720494,30.67312843,59.85807745,1768911,30.67313073,59.85807791,1805043,30.67312898,59.85807787
RUS,Penzenskaja,43281.31121,44.62075112,53.17724773,1475826,44.92225158,53.17664876,1421507,44.92224937,53.176649,1389111,44.92225182,53.17664879,1362645,44.9222527,53.17664904,1326642,44.92225233,53.17664956
RUS,Orlovskaja,24604.39647,36.47857844,52.77695987,883049,36.37925734,52.85600689,828479,36.37925749,52.85600644,788595,36.37925814,52.85600737,753502,36.37926018,52.85600732,714566,36.3792623,52.85600636
RUS,Kirovskaja,120228.2534,49.75415068,58.63499924,1553056,49.70175935,58.34713094,1434429,49.70175612,58.34713237,1344144,49.70175994,58.34713109,1264357,49.70175586,58.34712873,1180372,49.7017508,58.34713317
RUS,Voronezhskaja,52153.91816,40.22057226,50.95940101,2399048,39.76552437,51.2841924,2352444,39.76552484,51.28419233,2340312,39.7655252,51.28419159,2337139,39.76552473,51.28419179,2316448,39.76552587,51.28419231
RUS,Saha (Jakutija),3064578.846,131.8110568,65.21397964,950654,127.6741471,62.10263497,948711,127.6741233,62.1026297,960550,127.6741278,62.10261792,976254,127.6741352,62.10261687,984767,127.6741453,62.10263114
RUS,Pskovskaja,54852.46844,29.24914912,57.2070872,787414,29.1220196,57.21773125,723712,29.12202021,57.21773261,674846,29.12202088,57.21772936,631682,29.12201821,57.21773022,586840,29.12202281,57.21773308
RUS,Smolenskaja,49647.77584,32.97893034,54.94463621,1070358,32.7507381,54.85951632,1020755,32.75073529,54.85951517,987618,32.75073743,54.85951542,959210,32.75073519,54.85951585,924620,32.75073857,54.85951687
RUS,Volgogradskaja,112607.7601,44.11765573,49.59334103,2732515,44.29528986,49.16077014,2654213,44.29529045,49.16077018,2615673,44.29528961,49.16076972,2587542,44.29529052,49.16076898,2540501,44.2952914,49.16076907
RUS,Kabardino-Balkarskaja,12466.73667,43.40538951,43.49276106,915731,43.62003187,43.54063798,881938,43.6200312,43.54063788,861757,43.62003176,43.54063775,845251,43.62003078,43.54063771,822841,43.62003143,43.54063822
RUS,Udmurtskaja ,42035.91125,52.77051879,57.1490962,1588920,53.10248482,56.98160929,1545238,53.10248484,56.98161057,1524632,53.10248377,56.98160863,1510047,53.10248491,56.98160957,1484373,53.10248434,56.98161021
RUS,Saratovskaja ,100559.1713,46.74598621,51.57116323,2716717,46.2537343,51.61116189,2601391,46.25373471,51.61116219,2527214,46.25373628,51.61116136,2464540,46.25373718,51.61116212,2385373,46.25373684,51.61116122
RUS,Belgorodskaja,26886.25938,37.49443164,50.67046911,1512280,37.23085767,50.74250061,1513005,37.23085727,50.74249995,1535764,37.23085743,50.74250032,1564816,37.23085646,50.74250024,1582455,37.23085851,50.74250022
RUS,Dagestan,50181.69791,46.85269662,43.01839022,2508952,47.30670639,42.80498217,2685542,47.30670549,42.80498241,2916390,47.30670576,42.80498206,3179190,47.30670617,42.80498275,3439659,47.3067058,42.80498168
RUS,Hakasija,61398.26646,88.22579653,53.36130555,551675,91.42293723,53.57131204,538619,91.42293846,53.57131187,533528,91.4229381,53.571313,530502,91.42293806,53.57131054,523534,91.42293847,53.57131355
RUS,Lipeckaja,24023.4533,39.14243513,52.63881245,1228452,39.3372446,52.60894107,1193283,39.33724534,52.608942,1175990,39.33724429,52.60894157,1163379,39.33724544,52.60894234,1142261,39.33724465,52.608942
RUS,Orenburgskaja,124260.0605,55.5625579,51.97343193,2226391,55.59948889,51.90254374,2114455,55.59948574,51.90254514,2037363,55.5994847,51.90254524,1970590,55.59948906,51.90254466,1891695,55.5994891,51.902544
RUS,Arhangel'skaja,578684.0058,46.39088782,66.34716794,1370539,41.96277051,63.5324818,1289137,41.96276848,63.53248641,1230220,41.9627648,63.53247876,1178479,41.96276673,63.53248058,1120438,41.96276219,63.53247845
RUS,Severnaja Osetija - Alanija,8375.281021,44.27968405,43.10658552,712351,44.53210292,43.07532562,708283,44.53210273,43.07532613,714485,44.53210281,43.07532631,723498,44.53210237,43.07532584,727123,44.53210277,43.07532652
RUS,Stavropol'skij,66185.48953,43.33774786,44.94479605,2733056,42.82744566,44.66591716,2742566,42.82744586,44.66591711,2792163,42.82744544,44.66591737,2853517,42.82744502,44.66591678,2894329,42.8274453,44.66591704
RUS,Vologodskaja,145136.3129,40.39539415,59.94848355,1291914,39.58802657,59.46307568,1238711,39.58803273,59.46307839,1204981,39.58803333,59.4630767,1176650,39.5880282,59.46307662,1140360,39.58803144,59.46307631
RUS,Chechenskaja,15647.42217,45.74686898,43.30851854,1069974,45.75431199,43.28191669,1158072,45.75431222,43.28191656,1271669,45.75431132,43.28191666,1401746,45.75431147,43.28191661,1533520,45.7543116,43.28191722
RUS,Novgorodskaja,54890.89418,32.45605841,58.29489469,713046,32.10182288,58.41657236,668283,32.10182509,58.41657156,635449,32.10182285,58.41657338,606538,32.10182305,58.41657301,574594,32.10182999,58.41657385
RUS,Kostromskaja,60074.1712,43.73291225,58.44577886,757928,42.08863093,58.02651247,706938,42.08863422,58.02651231,668971,42.0886246,58.02651084,635463,42.08863028,58.02651268,599107,42.08864546,58.0265139
RUS,Rostovskaja,100432.0121,41.30135592,47.71171165,4453298,40.24732587,47.49581957,4337908,40.24732487,47.49581951,4287008,40.24732512,47.49582035,4252892,40.24732609,47.49581981,4187377,40.24732479,47.49581999
RUS,Mordovija,26055.7769,44.43502445,54.35864351,906305,44.79919971,54.24947097,864445,44.79919962,54.24947053,836518,44.79920302,54.24946996,812584,44.79919988,54.24946985,783412,44.79920201,54.24947036
RUS,Karachaevo-Cherkesskaja,14317.9978,41.7502695,43.76827734,432034,41.94105983,43.99101925,451574,41.94105816,43.99101918,478867,41.94105864,43.99101889,509751,41.94105886,43.99101863,538555,41.94105887,43.99101956
RUS,Cheljabinskaja,88469.31868,60.31727059,54.40657261,3649938,60.48842857,54.77011023,3540110,60.48842832,54.77010975,3483555,60.48842922,54.77011062,3441008,60.48842876,54.7701101,3373460,60.48842956,54.77011079
RUS,Samarskaja,53434.71798,50.43320158,53.26307292,3258402,49.95063571,53.32301992,3216985,49.95063545,53.32301975,3222319,49.95063496,53.32301968,3239997,49.95063633,53.32302022,3233317,49.95063456,53.32301993
RUS,Rjazanskaja,39629.86623,40.60998123,54.32596905,1251919,40.11405369,54.45716673,1194631,40.11405464,54.45716684,1156547,40.11405552,54.45716816,1123964,40.11405353,54.45716592,1084094,40.11405269,54.45716662
RUS,Chukotskij,716063.2892,167.7494498,66.39151214,54893,172.8391703,66.06937462,52341,172.8391586,66.06938722,50633,172.8390808,66.06936697,49169,172.8393153,66.06939083,47386,172.8390914,66.06937541
RUS,Zabajkal'skij,431144.2106,116.4232934,52.68247132,1172261,114.9895658,51.5677203,1132211,114.9895511,51.56771748,1109444,114.9895633,51.56772017,1091292,114.9895662,51.56772603,1065376,114.9895603,51.56772246
RUS,Kalmykija,70992.2078,45.25831809,46.43452263,294285,44.52690694,46.34937652,290076,44.52690064,46.34937179,290091,44.52689547,46.34936926,291216,44.52689707,46.34937788,290149,44.52689881,46.3493726
RUS,Jaroslavskaja,34559.08495,39.15363985,57.90041582,1397615,39.46480241,57.66573898,1325370,39.46480457,57.66573847,1275155,39.46480278,57.6657381,1231528,39.46480413,57.66573933,1180467,39.46480358,57.665739
RUS,Tyva,168217.5957,95.5285299,51.56345597,306091,94.07931888,51.45169628,305119,94.07930548,51.45170178,308579,94.07930207,51.45169916,313273,94.07930804,51.45169173,315649,94.07930762,51.45169374
RUS,Nizhegorodskaja,76623.21859,44.54563946,56.27693858,3593380,43.9245409,56.12280642,3427879,43.9245411,56.12280592,3317586,43.92454116,56.12280637,3223112,43.9245409,56.12280582,3107820,43.92454063,56.12280586
RUS,Amurskaja,362013.3917,128.0743224,53.30193896,925582,127.9965043,51.25593675,871152,127.996504,51.25593794,831855,127.9965034,51.25594184,797367,127.9965026,51.25593822,758572,127.9964993,51.25593417
RUS,Moskva,1345.162488,37.54146643,55.71098769,10159300,37.60218597,55.7421304,10744035,37.60218588,55.74213043,11527782,37.60218588,55.74213044,12415976,37.6021859,55.74213044,13272219,37.60218583,55.74213047
RUS,Primorskij,161739.6506,134.7497785,45.13820294,2109071,132.6063884,43.70490022,2018858,132.606388,43.70489995,1960630,132.6063892,43.70489973,1911353,132.6063892,43.70490013,1849329,132.6063892,43.70490049
RUS,Sverdlovskaja,193621.7838,61.35242869,58.50076981,4552194,60.59392539,57.31002591,4395932,60.59392561,57.31002505,4306821,60.59392534,57.31002671,4235642,60.59392501,57.31002699,4134358,60.59392445,57.31002655
RUS,Habarovskij,783329.596,137.4845311,54.18835684,1466394,136.0709529,49.40548715,1395160,136.0709486,49.40548376,1346708,136.0709477,49.40548395,1304905,136.0709463,49.40548659,1254906,136.0709469,49.40548182
RUS,Altaj,92874.54287,86.58748026,50.71908201,202934,86.00209759,51.27746013,203286,86.00210936,51.27745121,206604,86.00210564,51.27744859,210776,86.00211501,51.2774616,213421,86.00210693,51.27745881
RUS,Tomskaja,313581.451,81.45572757,58.4479881,1049755,83.75503585,57.02880625,1042126,83.75503422,57.02880642,1049604,83.75503956,57.02880579,1061179,83.75502819,57.02880604,1064828,83.75502353,57.02880864
RUS,Tul'skaja,25662.08553,37.5695151,53.8818023,1714300,37.74244652,54.03904053,1622104,37.74244656,54.03904029,1557207,37.74244639,54.03903989,1500615,37.74244566,54.03904011,1435224,37.74244527,54.03903946
RUS,Sankt-Peterburg,2593.344047,30.33845857,59.99362991,4626043,30.32745021,59.92588867,4721890,30.32745028,59.92588867,4889869,30.3274503,59.92588858,5083169,30.32745041,59.92588856,5244450,30.32745019,59.92588861
RUS,Sahalinskaja ,84424.98856,143.8347529,49.77050559,561773,142.9485776,47.89977645,525658,142.9485722,47.89977521,499026,142.9485707,47.89978076,475550,142.9485851,47.89977734,449779,142.9485862,47.89979231
RUS,Kemerovskaja,95514.4208,86.47713383,54.73619166,2945555,86.22496662,54.61293755,2835339,86.2249658,54.61293804,2768969,86.22496728,54.6129378,2714484,86.22496708,54.61293696,2641095,86.22496676,54.61293706
RUS,Irkutskaja,772911.4549,107.3894536,56.83971008,2631589,103.885455,53.90923934,2512583,103.8854578,53.90924103,2433879,103.8854586,53.90924113,2366642,103.8854506,53.90923837,2283992,103.8854617,53.90924346
RUS,Ivanovskaja,21594.87401,41.54355629,56.98601187,1175624,41.31285343,57.04205558,1110313,41.31285238,57.04205569,1063893,41.31285366,57.0420558,1023309,41.31285219,57.04205497,976882,41.31285418,57.04205491
RUS,Komi,415349.1295,54.06112223,63.92793277,1054436,53.42480165,63.43904608,968809,53.42479488,63.4390416,903092,53.42478957,63.43904167,845047,53.42479991,63.43904433,784797,53.42479569,63.43903919
RUS,Kurganskaja,71445.36558,64.75742329,55.43843578,1052750,64.78225984,55.50429339,973186,64.78226256,55.5042914,912730,64.7822625,55.50429222,859301,64.78226568,55.50429078,802924,64.78226446,55.50429155
RUS,Tambovskaja,34393.89001,41.58083037,52.67241779,1205760,41.44455333,52.71889415,1140412,41.44455492,52.71889294,1094299,41.44455459,52.71889483,1054066,41.44455457,52.71889619,1007687,41.44455362,52.71889518
RUS,Moskovskaja,45965.27736,37.6433347,55.66467147,6529698,37.79581014,55.69568065,6764673,37.79581024,55.69568089,7110100,37.79580956,55.69568078,7501721,37.79581046,55.69568035,7855491,37.79581018,55.69568053
RUS,Brjanskaja,34907.16194,33.41295241,52.89986543,1410788,33.69291966,53.04464863,1334608,33.6929186,53.0446482,1280914,33.6929205,53.0446494,1234081,33.69292075,53.04464861,1180034,33.69292146,53.04464989
RUS,Permskij,160457.0564,56.09967984,59.03886597,2878553,56.14380863,58.10411165,2737287,56.14380843,58.10411092,2640834,56.14380869,58.10411111,2557526,56.14380897,58.10411135,2458241,56.14380849,58.10411254
RUS,Novosibirskaja,177459.0394,79.39496481,55.25024966,2709339,81.87142117,54.94283943,2671007,81.8714182,54.94284034,2671539,81.87141983,54.94283952,2682283,81.87141649,54.94284026,2672848,81.87142549,54.94283916
RUS,Tverskaja,84299.16792,34.64271697,57.07383917,1508374,35.35863582,57.0097908,1419994,35.35863576,57.00979148,1356249,35.35863625,57.00979039,1300317,35.35863147,57.00979095,1237329,35.35863751,57.00979199
RUS,Marij Jel,23331.05764,47.91966575,56.57463016,738934,48.08124404,56.53971832,712970,48.08124499,56.53971847,697930,48.08124248,56.53971664,685819,48.08124396,56.53971757,668857,48.08124087,56.53971794
RUS,Krasnodarskij,75234.17495,39.45281903,45.24782638,5119946,39.25611705,45.09842602,5141203,39.25611612,45.09842586,5237680,39.25611574,45.09842572,5356359,39.25611642,45.09842593,5436602,39.25611697,45.09842495
RUS,Evrejskaja ,36324.65434,132.2893094,48.51441334,195438,132.7085044,48.6112254,184615,132.708503,48.61122647,176930,132.7085006,48.61122405,170214,132.7085017,48.61122519,162522,132.7085052,48.61122637
RUS,Astrahanskaja,51436.17601,47.26346935,47.02725567,1007974,47.74858369,46.60825624,1002816,47.74858302,46.60825798,1012206,47.74858406,46.6082569,1025587,47.74858335,46.60825699,1031343,47.74858419,46.60825632
RUS,Tatarstan,67835.77871,50.88270733,55.34250924,3792105,50.6590095,55.51578874,3765991,50.65901122,55.51578833,3794479,50.65900893,55.51578892,3837801,50.65900921,55.51578843,3852472,50.6590093,55.5157889
CHN,HuBei,186603.6394,112.3768132,30.9623621,60630060,113.1661894,30.79285208,59142131,113.1797487,30.79689746,57588066,113.1953503,30.80041203,55976044,113.213048,30.80334736,54007000,113.2328778,30.80565717
CHN,NeiMengGuZiZhiQu,903438.5564,114.7589126,43.30240724,23762767,116.4216673,42.79654518,24314627,116.2505714,42.70864344,24857521,116.067304,42.61594061,25393027,115.8719521,42.51857637,25776276,115.6647906,42.41676542
CHN,SiChuan,446360.3829,103.1596994,30.48713434,83899770,105.0593082,30.26822986,82357426,105.0132044,30.25763662,80909743,104.9645225,30.24796109,79558717,104.9134394,30.23939984,77861826,104.8602032,30.23213719
CHN,YunNan,384549.1836,101.8124245,24.93731321,43158184,102.4226509,25.01349265,44766182,102.4333811,25.02095594,46248122,102.4440059,25.02843888,47582922,102.4545236,25.03594016,48474500,102.464934,25.04345896
CHN,NingXiaHuiZuZiZhiQu,50943.12702,106.2151316,37.23903511,5589760,106.2123193,37.47691268,5945953,106.210011,37.54412142,6339921,106.2078336,37.60780607,6773841,106.2058832,37.66773403,7208640,106.2042406,37.72378662
CHN,GuangDong,178604.0034,113.492713,23.32186768,88230697,113.7040124,22.95679256,96319344,113.7080407,22.95329251,104958996,113.7124551,22.94989441,114166046,113.7172669,22.94657407,123253462,113.722484,22.94330727
CHN,ShanDong,155842.6603,118.2030779,36.33696398,91666934,118.0636108,36.20585564,94171876,118.0749527,36.21381333,96379042,118.0865079,36.22175086,98255456,118.0982735,36.22966451,99206377,118.1102498,36.23754932
CHN,HeNan,165944.1728,113.6869351,33.86096526,92955849,114.0004768,34.09441647,93884677,113.9759478,34.10971087,94605469,113.9515894,34.12513647,95112769,113.9274547,34.14069797,94863267,113.9036004,34.15640036
CHN,HuNan,212813.8011,111.7970498,27.58458319,64466280,112.0680479,27.66962341,65399809,112.082284,27.6735525,66102894,112.0967676,27.67758856,66561640,112.1114907,27.68173842,66387108,112.1264429,27.68600725
CHN,NA,1933804.861,103.1625288,38.85754822,0,0,0,0,0,0,0,0,0,0,0,0,0,0,0
CHN,Shaanxi,205770.023,109.0300743,35.12810175,36243622,108.9350926,34.632326,36956239,108.9328912,34.63004551,37555854,108.9308019,34.6275841,38033588,108.9288289,34.6249401,38164479,108.9269744,34.62210928
CHN,HaiNan,34261.06553,109.7599047,19.19207922,7724839,109.8949698,19.34367006,8214699,109.9028971,19.35036079,8724569,109.9112306,19.35739857,9254727,109.919936,19.36475653,9749929,109.9289739,19.37240144
CHN,BeiJingShi,16412.46833,116.4154965,40.1824691,13824847,116.3994944,39.95906067,16551618,116.3994944,39.95906055,19732415,116.3994942,39.95906042,23422586,116.3994943,39.95906052,27523067,116.3994943,39.95906054
CHN,FuJian,122540.4345,118.0197708,26.06719764,34740379,118.4290015,25.54616115,35886636,118.4326703,25.51368859,37120031,118.4348157,25.47851056,38478782,118.4350834,25.4402032,39785467,118.4331055,25.39838966
CHN,ZheJiang,103314.9076,120.1163071,29.16815371,46977118,120.5580957,29.37171671,50792918,120.568727,29.38326961,54760037,120.5786684,29.39464832,58857671,120.5879569,29.40586489,62703652,120.5966297,29.41693021
CHN,HeBei,187874.8591,116.2205501,39.49060849,67940805,116.0037169,38.55069828,70228137,116.002296,38.54612216,72294015,116.0008736,38.5416216,74107183,115.9994519,38.53719994,75210482,115.9980316,38.5328572
CHN,JiangSu,102038.3955,119.513145,32.95390021,76262571,119.5798009,32.79581941,77691212,119.5947388,32.74354248,79142388,119.609653,32.68980501,80619585,119.6243573,32.63500073,81659525,119.6386612,32.57956659
CHN,JiangXi,167691.7759,115.7731208,27.5881692,40962904,115.8467723,27.82737622,42945848,115.846997,27.82232143,44840577,115.8471943,27.81732425,46622719,115.8473616,27.81238704,47994707,115.8475014,27.80751128
CHN,QingHai,432072.011,98.21977725,35.50330365,4913824,101.2765975,36.23560569,5276095,101.2012292,36.21217018,5661170,101.1209637,36.18736242,6069982,101.0357082,36.16124918,6466708,100.9454154,36.13393027
CHN,ShangHaiShi,6804.109862,121.4439196,31.1989277,16716861,121.4392337,31.19651751,19718236,121.4392338,31.19651744,23160092,121.4392337,31.19651758,27084922,121.4392337,31.1965176,31356140,121.4392337,31.19651756
CHN,GuiZhou,176673.4546,106.9624602,26.8011564,35911803,106.6943311,26.86530116,35482243,106.6677757,26.85971517,34961252,106.6416115,26.85399035,34351144,106.6159339,26.84814419,33464714,106.5908338,26.84219326
CHN,JiLin,179068.0024,126.198976,43.67214963,27307171,125.793841,43.74261317,27516637,125.791039,43.749744,27620865,125.7881956,43.75683161,27615640,125.7853134,43.7638736,27342717,125.7824005,43.77086651
CHN,LiaoNing,145917.1504,122.6572812,41.28067968,42612425,122.5658302,41.09259822,43376626,122.5703017,41.07791824,44014073,122.574723,41.06337469,44514181,122.5790826,41.04898395,44613451,122.5833727,41.03476083
CHN,HeiLongJiang,405488.3169,128.4101556,47.25764874,36920325,127.667428,46.53238048,37787040,127.6541514,46.51509672,38548498,127.6411658,46.49789215,39193087,127.6284697,46.4807928,39485296,127.6160572,46.46382172
CHN,TianJin,11726.88114,117.3376009,39.30669697,10034282,117.2981712,39.19969614,11453383,117.2981713,39.19969613,13017898,117.2981712,39.19969617,14732008,117.2981712,39.19969627,16504083,117.2981711,39.1996962
CHN,XinJiangWeiWuErZiZhiQu,756971.327,81.05771538,41.79287071,18807306,80.72448657,41.89124235,20338794,80.75437809,41.89766976,21949347,80.78910864,41.90867883,23637059,80.82877842,41.92433873,25255370,80.87347067,41.94468863
CHN,XiZangZiZhiQu,765362.0779,84.54933609,30.80553875,2665621,94.44665221,30.06420468,2842300,94.450397,30.08336902,3020541,94.45344217,30.10266196,3198928,94.4557645,30.12208522,3356750,94.4573827,30.14160536
CHN,ShanXi,156699.6916,112.3717063,37.52973817,33083022,112.3474585,37.22127287,34538281,112.3494348,37.2346751,35930703,112.3515303,37.24846169,37245102,112.3537446,37.26263099,38248828,112.3560782,37.2771727
CHN,GuangXiZhuangZuZiZhiQu,237576.1761,108.8894607,23.81301652,44680772,109.3150775,23.49597398,45572320,109.3171696,23.484294,46305452,109.3189447,23.47261764,46867071,109.3204032,23.46094452,46978492,109.3215515,23.4492767
CHN,AnHui,140685.7843,117.2873311,31.80053035,60556396,117.1073545,32.22604287,60302209,117.1131941,32.22010986,59864656,117.1189237,32.21430893,59244716,117.1245323,32.20865987,58114568,117.1300059,32.20318322
CHN,ChongQingShi,82745.45216,107.9320068,30.04499924,31087645,107.2715423,29.88821816,30101180,107.2715423,29.88821776,29022749,107.271542,29.88821777,27861743,107.2715429,29.88821806,26478025,107.2715415,29.88821771
CHN,GanSu,343420.5907,102.8693675,37.31961181,25640384,104.6257098,35.90790788,25725831,104.5924275,35.9173745,25731802,104.5587811,35.92742856,25656162,104.5247886,35.93806159,25353311,104.4904618,35.94927212
USA,Virginia,103992.5016,-78.68793977,37.50670149,7117756,-77.7028761,37.74585121,7558255,-77.69329811,37.77472635,8018093,-77.68278738,37.80590886,8481514,-77.67285145,37.83895851,8966479,-77.66204524,37.87487966
USA,North Carolina,128177.5326,-79.17533124,35.53606983,8092130,-79.53118582,35.55202942,8805858,-79.52753754,35.54681757,9553968,-79.52281981,35.54139343,10323352,-79.5177846,35.5357629,11119883,-79.5131092,35.52983338
USA,Nebraska,200494.4877,-100.1024284,41.51102648,1718056,-97.67956106,41.18120655,1773087,-97.62525209,41.1764612,1827915,-97.57672036,41.17227166,1878941,-97.53029533,41.16836291,1913426,-97.47742738,41.16394368
USA,Mississippi,123840.3597,-88.26285342,32.72422069,2859203,-88.1361247,32.5566963,2917123,-88.12334249,32.56603493,2971421,-88.11021634,32.57958549,3021194,-88.09662571,32.59747429,3063027,-88.08192855,32.61961423
USA,Kansas,213425.5656,-98.71003531,38.4692796,2699269,-96.82991768,38.44972111,2778464,-96.78754791,38.45539467,2856299,-96.74782147,38.46157312,2923651,-96.71030679,38.46761887,2967818,-96.66878549,38.47435252
USA,Ohio,116223.4903,-82.52893731,40.39745697,11410154,-82.55804266,40.47449592,11501058,-82.57092294,40.46210001,11555368,-82.58418391,40.44954903,11553345,-82.59800657,40.43666981,11486779,-82.61284587,40.42291869
USA,New York,137229.2266,-75.52275057,42.95696727,19074339,-74.49686806,41.49890976,19293247,-74.48600588,41.49564785,19424560,-74.47546768,41.49202036,19392585,-74.46632731,41.49002998,19230324,-74.45586222,41.48705487
USA,Pennsylvania,119395.8691,-77.70130183,40.8863533,12341577,-76.91422753,40.46135587,12554903,-76.88310455,40.45781851,12721418,-76.85258359,40.4544582,12815530,-76.82342923,40.45154293,12814601,-76.79344548,40.44811444
USA,Louisiana,125672.8331,-92.59913072,31.00337618,4493329,-92.22123246,30.69475094,4515132,-92.23462336,30.70800783,4540425,-92.24267394,30.71800352,4563402,-92.24647883,30.72526025,4576296,-92.24566659,30.72943285
USA,Maine,84131.60853,-69.17997085,45.35584397,1282120,-69.67720932,44.30646982,1310544,-69.68444687,44.3000834,1330274,-69.69058528,44.29440942,1341362,-69.69612539,44.28935719,1344134,-69.70290566,44.28349144
USA,Wyoming,253456.4531,-107.731497,42.9671174,497287,-107.2114157,42.66602321,531645,-107.2180599,42.6748714,564089,-107.2240892,42.68405422,596847,-107.2322977,42.694671,629514,-107.2420002,42.70766239
USA,New Mexico,315686.4181,-106.3029772,34.38127874,1828528,-106.4771714,34.61033629,1945962,-106.4775042,34.61547393,2061958,-106.4802896,34.62217374,2176206,-106.4832382,34.62886914,2285746,-106.4863383,34.63501327
USA,Florida,151534.1584,-82.0112703,28.58223601,16067736,-81.31425481,27.78190546,17422213,-81.32033133,27.79649175,18838706,-81.32711625,27.81176562,20271358,-81.33498349,27.82843844,21725691,-81.3432643,27.84635708
USA,Washington,174979.2001,-120.5312888,47.35775967,5927220,-121.6745102,47.33586872,6336203,-121.6749204,47.33104402,6737631,-121.6755486,47.32592141,7114242,-121.6743907,47.32022681,7469021,-121.6724515,47.31397364
USA,District of Columbia,177.2528767,-77.01609759,38.90474364,575130,-77.01433358,38.91026945,590425,-77.01433875,38.9102714,603445,-77.01433676,38.91026109,610860,-77.01433512,38.9102698,614494,-77.0143362,38.91027041
USA,Vermont,24911.98378,-72.63861169,44.06505258,612182,-72.78976141,44.07850596,621198,-72.79103435,44.08592073,626659,-72.7925981,44.09193769,628248,-72.79388231,44.09761917,625704,-72.79509849,44.10455587
USA,Michigan,250499.2461,-84.67849785,44.79541772,9992178,-83.92252717,42.85867307,9962462,-83.93659666,42.86273721,9897749,-83.94997217,42.86644043,9780438,-83.96322209,42.87030819,9592652,-83.97634644,42.87369912
USA,New Hampshire,24033.29493,-71.55538818,43.67520669,1243154,-71.45143547,43.15230303,1284719,-71.45086,43.15295834,1318701,-71.44995235,43.15347275,1343843,-71.44918637,43.15433022,1361167,-71.44853685,43.15506209
USA,Texas,692818.6942,-100.0677743,31.38987731,20962502,-98.1057233,30.92795042,22998006,-98.08562024,30.90574784,25192809,-98.06348617,30.88490699,27512519,-98.04021923,30.86686095,29977347,-98.01387175,30.85092949
USA,Georgia,152951.2122,-83.19799856,32.62558163,8231403,-83.67472954,33.32759661,8941071,-83.68406853,33.34922146,9708952,-83.69494576,33.37182528,10515313,-83.70654283,33.39419307,11379585,-83.71966614,33.4175281
USA,Rhode Island,3070.340524,-71.53530003,41.67284611,1054758,-71.44838023,41.75336441,1055812,-71.44890641,41.75322269,1054361,-71.44935837,41.75343451,1045391,-71.44980449,41.75366333,1026910,-71.45035433,41.75352947
USA,California,410766.496,-119.7277356,37.11319589,34054393,-119.5148086,35.43335392,35723393,-119.5003385,35.4357482,37348075,-119.4835902,35.43650355,38774470,-119.465814,35.43750121,40080172,-119.4458002,35.4370788
USA,Massachusetts,21048.77502,-71.78241464,42.25428326,6383244,-71.35091663,42.27108367,6493280,-71.35055501,42.27142372,6561225,-71.35025054,42.2717164,6577976,-71.35037834,42.2719126,6561883,-71.34978183,42.27229822
USA,Maryland,25906.77643,-76.72161034,39.04013529,5325344,-76.78188325,39.1459702,5563773,-76.78164212,39.14293226,5786504,-76.7817625,39.14003299,5973506,-76.78181549,39.13719498,6132036,-76.78149815,39.13421751
USA,Connecticut,12884.83977,-72.71607491,41.62070764,3424382,-72.86624107,41.4949575,3512386,-72.86413486,41.49573129,3582200,-72.86206384,41.49647161,3622483,-72.85979503,41.49730416,3641005,-72.85757804,41.49813098
USA,Wisconsin,169652.0642,-87.75883782,44.60514219,5396096,-87.92402389,43.72062469,5557811,-87.92918057,43.71764823,5693933,-87.93323906,43.7144819,5800852,-87.93675774,43.71258118,5871258,-87.94044259,43.71084679
USA,Kentucky,104838.4253,-84.92965686,37.51955464,4063720,-84.95357582,37.80530918,4210944,-84.96362732,37.8135117,4347381,-84.97240347,37.82193581,4463750,-84.98091825,37.83017566,4560196,-84.98841789,37.83920022
USA,Delaware,5230.707313,-75.49050342,38.98873315,787785,-75.55269516,39.38840763,843459,-75.5489405,39.3732122,899556,-75.54515617,39.35769685,953638,-75.54127808,39.34179095,1005288,-75.53743666,39.32577016
USA,New Jersey,20079.19075,-74.64129644,40.17992052,8460513,-74.41377676,40.43637088,8659341,-74.41500159,40.4334469,8810174,-74.41632965,40.43032748,8896439,-74.41792146,40.42675882,8933442,-74.41906887,40.42363538
USA,Arizona,295962.6317,-111.7899865,34.2503974,5158846,-111.8868394,33.36453834,5754775,-111.8968715,33.36506378,6403270,-111.9053419,33.36395987,7106293,-111.9121873,33.3623597,7874542,-111.9163999,33.35953116
USA,Alabama,134237.5868,-86.40385823,32.76600926,4469067,-86.31354823,32.99016776,4632887,-86.30688979,32.99395121,4786764,-86.30122337,32.99816117,4926334,-86.29584269,33.00222514,5045139,-86.29025395,33.00522131
USA,Idaho,216478.108,-114.7731068,44.31360284,1301601,-115.3093912,44.21776929,1432527,-115.3283778,44.20572598,1569450,-115.3474696,44.1940978,1715183,-115.3660115,44.18211756,1868609,-115.3840225,44.17015307
USA,Utah,220178.7249,-111.7828645,39.28356144,2245285,-111.9525212,40.43051775,2497525,-111.9628916,40.41300974,2768907,-111.9738696,40.393794,3054227,-111.9855187,40.37215086,3354212,-111.9977146,40.34823241
USA,West Virginia,62849.08524,-80.52802298,38.63321304,1816403,-80.69156795,38.7638419,1837754,-80.64622283,38.77746109,1855460,-80.59832983,38.79146797,1866178,-80.54652457,38.80650469,1864837,-80.4881965,38.82329865
USA,Hawaii,16739.99356,-156.3455812,20.23946378,1217863,-157.5329701,21.14025158,1291674,-157.5116126,21.12722232,1364242,-157.4901505,21.1141854,1428250,-157.4671991,21.10016437,1487142,-157.4437613,21.08584183
USA,Nevada,286762.0177,-116.7573182,39.29812525,2008984,-116.4500608,37.14756421,2335890,-116.3832965,37.08604738,2706795,-116.319026,37.02723943,3116556,-116.2591526,36.97353564,3571033,-116.2022196,36.92387199
USA,South Dakota,199758.3077,-100.5264497,44.41696366,758567,-99.47049778,44.0424959,786164,-99.45969279,44.02670386,814935,-99.43789391,44.00958003,844926,-99.40619689,43.99142403,874004,-99.3646729,43.97054241
USA,Iowa,145847.7106,-93.99976651,42.05875396,2937974,-93.5877922,41.95705807,2996478,-93.57351457,41.94961813,3049502,-93.56291661,41.94261793,3093644,-93.55347219,41.9355134,3113964,-93.54136953,41.9272401
USA,Illinois,150168.5203,-87.77571441,40.08210986,12480951,-87.59287529,41.26931187,12677959,-87.60030077,41.27282421,12848918,-87.60841687,41.27678926,12982681,-87.61753084,41.28115367,13060033,-87.62839162,41.28795245
USA,Tennessee,109385.0711,-85.76810959,35.83894687,5723023,-85.67113583,35.79466748,6045560,-85.66921877,35.80057498,6356996,-85.66920823,35.80664885,6651517,-85.67038615,35.81290245,6932469,-85.67241299,35.81932565
USA,North Dakota,183005.6821,-100.7446964,47.42410183,644006,-99.64803496,47.36888694,658064,-99.64068238,47.35607392,673180,-99.62694882,47.3432343,687184,-99.61209756,47.33041837,695355,-99.59785233,47.31691766
USA,Indiana,94439.40886,-85.95092503,39.89447838,6114955,-85.9335083,40.15370091,6312614,-85.93526376,40.14744519,6492516,-85.93762056,40.14075336,6652644,-85.94037765,40.13393144,6784797,-85.94346042,40.12661132
USA,Oklahoma,181432.4168,-97.81638483,35.5678454,3471604,-96.9881231,35.59669677,3621659,-96.98630268,35.59618676,3755812,-96.98579813,35.59587493,3877177,-96.98620875,35.59537378,3981040,-96.98662949,35.59470063
USA,Arkansas,138053.1657,-92.96313211,34.88225075,2687322,-93.04181372,35.07715624,2804199,-93.07174312,35.10779762,2919754,-93.1018652,35.13817014,3035034,-93.13253329,35.16908393,3145359,-93.16409578,35.20111017
USA,Oregon,251379.7441,-120.6647343,43.9040284,3440945,-122.6284829,44.72353767,3644421,-122.6307546,44.72872004,3837645,-122.6319572,44.73420336,4015669,-122.6319874,44.73904595,4177752,-122.6318786,44.74337201
USA,Missouri,180821.3208,-93.24892154,38.33733188,5629009,-92.98950824,38.43180796,5824029,-93.00342632,38.42498564,5997190,-93.01442443,38.41882079,6150190,-93.02524885,38.41230052,6282193,-93.03626629,38.40547959
USA,Alaska,1507563.79,-153.1040564,63.42718756,630328,-149.1365681,61.18069846,670474,-149.2039931,61.24041153,711724,-149.2634009,61.29771572,752385,-149.3169706,61.35376785,792996,-149.3675802,61.40784843
USA,Colorado,269982.804,-105.7438305,38.97026176,4326228,-105.2575871,39.49798879,4675525,-105.2619581,39.50413431,5037595,-105.2646918,39.51010937,5409768,-105.2664141,39.51599814,5789836,-105.267731,39.52187338
USA,Minnesota,225095.4977,-95.04565996,46.28123182,4944345,-93.95020726,45.20284191,5133567,-93.93693488,45.19948131,5311455,-93.92503574,45.19579568,5470809,-93.91479711,45.19243851,5606366,-93.9024378,45.18872283
USA,South Carolina,80612.02135,-80.79574941,33.9012238,4033979,-80.92344554,34.03196241,4331915,-80.91260906,34.02704604,4633173,-80.90042807,34.02161869,4933940,-80.88693548,34.01588447,5232367,-80.87213604,34.00986137
USA,Montana,380656.0681,-109.9570544,46.99408766,907183,-111.4324345,46.80390478,949473,-111.4740618,46.79013654,990294,-111.507532,46.77753286,1030030,-111.5375332,46.7648238,1063856,-111.5735218,46.75131467
BRA,Parana,199098.7372,-51.5874229,-24.61998248,9904540,-51.0831943,-24.71053478,10474628,-51.05829892,-24.71604406,10875269,-51.0344485,-24.72133074,11198884,-51.01133798,-24.72652513,11432130,-50.98902062,-24.73158546
BRA,Rondonia,202810.0797,-62.6967888,-10.89810993,1429726,-62.59528056,-10.586419,1535010,-62.63449041,-10.53060672,1626840,-62.67145864,-10.47701768,1719744,-62.70573961,-10.42581502,1813045,-62.73678181,-10.37705902
BRA,Roraima,171376.3399,-61.26595675,2.123919019,335302,-60.75715751,2.637004286,400046,-60.748073,2.636650891,469065,-60.74204279,2.637085285,545889,-60.73877109,2.638212347,630112,-60.73785213,2.639909686
BRA,Minas Gerais,588545.5998,-44.57867821,-18.42027876,18523872,-44.27089066,-19.62895805,19624487,-44.29223496,-19.63647955,20405557,-44.31348352,-19.64364456,21039758,-44.33474881,-19.65051182,21505471,-44.35606424,-19.65708174
BRA,Rio Grande do Norte,53084.65171,-36.66799612,-5.839899989,2874314,-36.1141782,-5.847689093,3105447,-36.09663312,-5.842742854,3298681,-36.07885718,-5.837987219,3480757,-36.06055253,-5.833475163,3647778,-36.04145143,-5.829275118
BRA,Piaui,247697.9728,-42.90975595,-7.346175339,2942246,-42.39842508,-5.817842145,3120700,-42.40388415,-5.810716218,3246924,-42.40940701,-5.805173402,3347756,-42.4150877,-5.801273265,3418987,-42.42094178,-5.798926177
BRA,Espirito Santo,46028.92298,-40.65683757,-19.56356073,3207507,-40.55021278,-20.04839718,3458497,-40.54020685,-20.04847581,3659291,-40.53032173,-20.04841037,3837903,-40.52056923,-20.04818724,3988477,-40.51096271,-20.04783345
BRA,NA,728552.4353,-59.78850098,-4.666962669,0,0,0,0,0,0,0,0,0,0,0,0,0,0,0
BRA,Mato Grosso do Sul,358183.6099,-54.77766743,-20.30117587,2150685,-54.57877483,-20.9893739,2362662,-54.57097976,-20.99240382,2550033,-54.56275182,-20.99479201,2731976,-54.55411587,-20.99637978,2904725,-54.5451981,-20.99703572
BRA,Santa Catarina,94784.7451,-50.47428857,-27.23599708,5543966,-49.8296615,-27.23251594,6056310,-49.78503087,-27.22763934,6506082,-49.74100925,-27.22249115,6944015,-49.69756546,-27.21707131,7361283,-49.65464625,-27.21140184
BRA,Pernambuco,98571.59843,-37.97711557,-8.325249366,8195490,-36.00508064,-8.192535913,8743787,-36.01990472,-8.197004218,9157200,-36.0359446,-8.201722607,9510095,-36.05323516,-8.206696771,9790853,-36.07179042,-8.211922207
BRA,Paraiba,56805.7207,-36.82499041,-7.120523957,3564589,-36.06184596,-7.08558982,3774196,-36.04224965,-7.086349267,3921902,-36.02231946,-7.087075014,4040406,-36.00204052,-7.08776931,4125172,-35.98143483,-7.088416765
BRA,Distrito Federal,5568.845722,-47.79630514,-15.78359143,2128759,-47.9774346,-15.82241748,2411455,-47.97743575,-15.82241689,2676181,-47.977435,-15.8224161,2939176,-47.97743612,-15.82241663,3193481,-47.97743532,-15.82241609
BRA,Acre,158508.6256,-70.3659494,-9.180792313,577655,-69.02009596,-9.437919076,670168,-69.02137321,-9.445310419,763821,-69.02587093,-9.451797616,864078,-69.03411243,-9.457221219,970028,-69.04647785,-9.4614822
BRA,Bahia,564140.5778,-41.65750031,-12.44969228,13524307,-39.81075393,-12.92049293,14163520,-39.80108622,-12.90474765,14592554,-39.79300381,-12.89215922,14940187,-39.78657114,-12.88235262,15193056,-39.78187082,-12.87503788
BRA,Ceara,149039.9626,-39.59958183,-5.091589949,7694791,-39.1510624,-4.56038428,8307573,-39.14290128,-4.54208782,8800933,-39.13476883,-4.524090095,9242371,-39.12666316,-4.506391319,9617895,-39.11854956,-4.488972027
BRA,Mato Grosso,878846.0071,-55.74156415,-12.94145013,2596645,-55.76005084,-14.30947195,2879476,-55.75519829,-14.27363661,3160276,-55.75339239,-14.22616407,3471718,-55.75558674,-14.16694545,3820590,-55.76277059,-14.09637006
BRA,Alagoas,27881.50207,-36.61916631,-9.513975038,2921672,-36.2798766,-9.573449557,3110210,-36.27018311,-9.576013615,3249202,-36.26056725,-9.578421342,3364911,-36.25104546,-9.580686787,3452875,-36.24160383,-9.582806032
BRA,Amazonas,1188112.483,-64.05102014,-4.179250263,2913760,-61.20801272,-3.494461919,3278442,-61.15115968,-3.48842254,3627641,-61.10684181,-3.48198194,3986455,-61.07365499,-3.475308468,4347706,-61.05023604,-3.468407317
BRA,Rio Grande do Sul,271721.6868,-53.2600338,-29.71056061,10544093,-52.19206308,-29.62227849,10937508,-52.15984543,-29.62614926,11134896,-52.12778199,-29.62923397,11239410,-52.09585827,-29.63157345,11244375,-52.06403116,-29.63320721
BRA,Maranhao,330157.4328,-45.23342242,-5.063183546,5854143,-44.76321143,-3.982938243,6383819,-44.7538531,-3.966545156,6845337,-44.74564871,-3.950358653,7292977,-44.73871659,-3.934429885,7718070,-44.73320872,-3.918813951
BRA,Para,1110343.114,-52.73088444,-3.732287772,6405198,-49.5191532,-2.531154469,7152641,-49.50942588,-2.572796347,7893672,-49.50697611,-2.62951537,8709089,-49.51182481,-2.703634326,9617908,-49.52441402,-2.797703821
BRA,Sao Paulo,246137.3616,-48.71343401,-22.23380764,38340189,-47.23667468,-23.00314279,40977157,-47.23137803,-23.00254131,42961612,-47.2263949,-23.00190711,44639585,-47.22176708,-23.00122235,45954427,-47.21749122,-23.00049335
BRA,Sergipe,21965.47762,-37.44240178,-10.58115307,1846549,-37.28728489,-10.78818335,2012876,-37.28397884,-10.78984215,2152673,-37.28061731,-10.79136157,2281650,-37.27719951,-10.7927157,2395812,-37.27374134,-10.79391239
BRA,Rio de Janeiro,42803.55992,-42.62034408,-22.17399005,14896204,-43.18355338,-22.7026532,15888933,-43.17476683,-22.70236844,16649335,-43.16389883,-22.70187302,17327610,-43.15017202,-22.70106424,17924252,-43.13246778,-22.6997821
BRA,Tocantins,271985.3038,-48.23338182,-10.11325938,1197860,-48.23204838,-9.213436035,1321837,-48.23365229,-9.210841987,1440491,-48.23550591,-9.212560599,1566576,-48.23764992,-9.219020052,1699828,-48.24007621,-9.230555181
BRA,Goias,340430.0757,-49.55877753,-16.02313161,5178697,-49.19985303,-16.41783688,5736318,-49.18939419,-16.43656154,6251392,-49.18017673,-16.45396309,6770868,-49.17219467,-16.47013588,7285337,-49.16543083,-16.48518438
BRA,Amapa,98822.31985,-51.50286627,1.416087959,494288,-51.2193322,0.202961307,592392,-51.22350273,0.212667802,697134,-51.22860011,0.224105472,814203,-51.23499799,0.237462896,943939,-51.24314491,0.25303872
CAN,Nova Scotia / Nouvelle-Ecosse,55634.23079,-63.29878627,45.13144528,939351,-63.253946,45.04072511,941011,-63.27362911,45.03010509,948593,-63.2927323,45.01961303,951608,-63.31036747,45.00930901,947396,-63.32819166,44.99916345
CAN,Quebec / Quebec,1507106.996,-70.03113493,52.74494329,7424764,-72.73351501,46.13342235,7716225,-72.75747606,46.12149682,8072484,-72.78144915,46.10966352,8406587,-72.80562006,46.0978761,8694212,-72.82906331,46.08644771
CAN,NA,91163.3778,-81.75160211,45.53605934,0,0,0,0,0,0,0,0,0,0,0,0,0,0,0
CAN,Nunavut,2084406.217,-109.2971838,68.59464913,27811,-72.60945537,65.54485102,29926,-72.6061831,65.56817433,32357,-72.60749127,65.58969974,34805,-72.6078987,65.61669512,37093,-72.60900689,65.64114638
CAN,Manitoba,648206.6378,-99.39134765,54.61592308,1122964,-98.04329456,50.2475712,1172457,-98.02248249,50.23651007,1232016,-98.00356825,50.22472199,1288919,-97.98529985,50.2125192,1339317,-97.96872155,50.20023033
CAN,British Columbia / Colombie-Britannique,946372.0257,-125.0258988,54.34685715,3940888,-122.6680936,49.69267495,4188345,-122.6607906,49.66547718,4475866,-122.6542048,49.63970442,4757078,-122.6483475,49.61590804,5016937,-122.6434582,49.59384542
CAN,Yukon,481829.5185,-135.5462829,63.31921835,27580,-135.1789175,61.011755,30735,-135.1821621,61.01511783,34133,-135.1794135,61.0122001,37933,-135.1808898,61.01417604,41560,-135.1791643,61.0118543
CAN,Prince Edward Island / Ile-du-Prince-Edouard,5891.379769,-63.23389065,46.38900856,135882,-63.30181804,46.35157574,139345,-63.29999927,46.34886259,143565,-63.29731257,46.34609728,147345,-63.29385796,46.34320306,150043,-63.29110098,46.34038803
CAN,Newfoundland and Labrador / Terre-Neuve-et-Labrador,406291.913,-59.64244523,52.6075998,514712,-54.70443147,48.43996644,519825,-54.64515687,48.41630374,528484,-54.58673236,48.39269848,535018,-54.52871411,48.36922719,538027,-54.47177218,48.3459816
CAN,New Brunswick / Nouveau-Brunswick,73100.96288,-66.32784418,46.60032385,733689,-65.89996664,46.33358277,749091,-65.88846103,46.31193219,769990,-65.87710839,46.29054414,787598,-65.86534387,46.26961123,801210,-65.85362868,46.24931728
CAN,Saskatchewan,651059.5718,-106.8969243,54.05245577,930695,-105.9228687,51.62761787,986437,-105.9259068,51.63342886,1048826,-105.9307948,51.64089392,1113370,-105.9369144,51.64814435,1173767,-105.942136,51.65348497
CAN,Ontario,985716.8396,-81.88219351,50.13904607,11838570,-79.295572,44.03193305,12413288,-79.27750492,44.0205737,13104174,-79.26077761,44.0100401,13775401,-79.2450643,44.00033832,14387151,-79.23073923,43.99171109
CAN,Northwest Territories / Territoires du Nord-Ouest,1343750.659,-120.6043051,65.30252449,43011,-119.2871855,63.17063095,42758,-119.2374018,63.16662055,42728,-119.1803447,63.15983885,42450,-119.1320935,63.15670923,41812,-119.0741873,63.14835417
CAN,Alberta,661751.2428,-115.0450476,54.84779283,3022724,-113.9336437,52.37419333,3327196,-113.935637,52.37479277,3679214,-113.9363013,52.37547133,4054062,-113.9373587,52.37825517,4429796,-113.936534,52.38278227
