ISO3,NAME1,AREA,LON,LAT,UN_2000_E,LON,LAT,UN_2005_E,LON,LAT,UN_2010_E,LON,LAT,UN_2015_E,LON,LAT,UN_2020_E,LON,LAT
CHN,HuBei,186603.63941534984,112.3768131904822,30.962362101612886,60630060.0,113.16618942339285,30.792852075190844,59142131.0,113.17974865169253,30.79689746347002,57588066.0,113.19535025361014,30.800412025819213,55976044.0,113.2130479713427,30.8033473627455,54007000.0,113.23287777942384,30.80565717167081
CHN,FuJian,122540.43451820465,118.01977084791841,26.067197637957204,34740379.0,118.42900150885616,25.546161149432024,35886636.0,118.43267028886169,25.51368859480829,37120031.0,118.43481574794106,25.478510560273435,38478782.0,118.4350833837958,25.440203201206614,39785467.0,118.43310552089716,25.39838966005617
CHN,ChongQingShi,82745.45215881622,107.93200680821042,30.04499924072432,31087645.0,107.27154226019627,29.8882181602781,30101180.0,107.27154234083501,29.88821776286786,29022749.0,107.27154200899714,29.888217767735604,27861743.0,107.27154291972603,29.88821806392711,26478025.0,107.27154150821974,29.888217707666875
CHN,JiangXi,167691.77593432527,115.77312076043648,27.588169202152315,40962904.0,115.84677225252518,27.82737622425582,42945848.0,115.8469970416416,27.822321425304416,44840577.0,115.84719434108389,27.817324248949184,46622719.0,115.84736160813978,27.81238704053686,47994707.0,115.84750141658911,27.807511282747605
CHN,YunNan,384549.1835641699,101.81242454760356,24.937313212628812,43158184.0,102.42265086025203,25.013492654666678,44766182.0,102.43338112711076,25.020955935286086,46248122.0,102.44400591793709,25.028438878980506,47582922.0,102.4545236476961,25.035940158324852,48474500.0,102.46493400161735,25.0434589559141
CHN,GuangDong,178604.00342211218,113.49271304466365,23.3218676758568,88230697.0,113.70401238121987,22.956792562851277,96319344.0,113.70804072973677,22.95329250891412,104958996.0,113.71245507571594,22.949894412393576,114166046.0,113.71726688284038,22.946574068893742,123253462.0,113.7224839762312,22.94330727288366
CHN,NeiMengGuZiZhiQu,903438.5564297641,114.75891256272605,43.302407241558925,23762767.0,116.42166727945389,42.7965451759964,24314627.0,116.25057137614026,42.70864344429612,24857521.0,116.0673040186193,42.615940605202404,25393027.0,115.87195211749425,42.5185763681225,25776276.0,115.66479059017539,42.41676542380291
CHN,JiLin,179068.00239106335,126.19897603713747,43.672149631631555,27307171.0,125.79384101282423,43.74261317349676,27516637.0,125.79103895720148,43.74974400403201,27620865.0,125.78819560373631,43.75683160682871,27615640.0,125.78531335834292,43.763873602590785,27342717.0,125.78240048769148,43.770866513476584
CHN,BeiJingShi,16412.468330850756,116.4154964884483,40.18246910228132,13824847.0,116.39949438825651,39.9590606737558,16551618.0,116.39949439338383,39.959060554757095,19732415.0,116.39949421336647,39.959060424279755,23422586.0,116.39949427022842,39.95906051899753,27523067.0,116.39949433764954,39.95906053988961
CHN,ShangHaiShi,6804.1098620073835,121.44391959339417,31.198927696167225,16716861.0,121.43923366955664,31.196517508755267,19718236.0,121.43923376460252,31.196517444716267,23160092.0,121.43923374256562,31.196517576662718,27084922.0,121.43923371422602,31.196517603878426,31356140.0,121.43923372258838,31.196517560500926
CHN,ZheJiang,103314.9075757258,120.11630712575521,29.168153708359124,46977118.0,120.55809574558067,29.3717167071298,50792918.0,120.5687269583782,29.38326961373527,54760037.0,120.57866843183564,29.394648322820483,58857671.0,120.5879569309713,29.40586489241457,62703652.0,120.59662972694932,29.416930211568296
CHN,XinJiangWeiWuErZiZhiQu,756971.3269661448,81.057715378001,41.79287070696699,18807306.0,80.7244865666058,41.89124235218989,20338794.0,80.75437808643079,41.89766976312348,21949347.0,80.78910864200276,41.9086788338487,23637059.0,80.82877842394306,41.92433872949098,25255370.0,80.8734706703135,41.944688634535936
CHN,HeBei,187874.8591497123,116.22055009059866,39.49060849095367,67940805.0,116.00371687574057,38.55069827579352,70228137.0,116.00229596659993,38.54612216435307,72294015.0,116.00087364801877,38.541621601796386,74107183.0,115.99945185418831,38.53719994139449,75210482.0,115.99803159428491,38.532857200383894
CHN,GuiZhou,176673.45462869815,106.96246016919471,26.80115640003194,35911803.0,106.69433108379118,26.865301159892283,35482243.0,106.6677756959497,26.859715167445763,34961252.0,106.64161146813639,26.853990346774697,34351144.0,106.6159339034557,26.848144185154762,33464714.0,106.59083383242499,26.842193263058665
CHN,JiangSu,102038.39552088903,119.51314498573572,32.953900213104696,76262571.0,119.57980088431712,32.79581940728116,77691212.0,119.59473882339037,32.74354248244485,79142388.0,119.60965296838553,32.68980500545845,80619585.0,119.62435731659363,32.635000725326876,81659525.0,119.63866124289206,32.57956658561964
CHN,NingXiaHuiZuZiZhiQu,50943.12702498699,106.21513164458425,37.23903510928236,5589760.0,106.21231929635411,37.476912679006844,5945953.0,106.21001099207082,37.54412141684407,6339921.0,106.20783360133055,37.60780607354543,6773841.0,106.20588320363572,37.66773402586329,7208640.0,106.20424059165009,37.72378662287178
CHN,HeNan,165944.17275435536,113.6869350794517,33.860965263453146,92955849.0,114.00047677421657,34.09441647086898,93884677.0,113.97594779006623,34.109710871721404,94605469.0,113.9515893898845,34.125136472213896,95112769.0,113.92745474923538,34.14069796755067,94863267.0,113.90360037384819,34.15640036397174
CHN,TianJin,11726.881139146855,117.33760089686237,39.30669697338813,10034282.0,117.29817117172328,39.19969614387168,11453383.0,117.29817134411297,39.19969612708643,13017898.0,117.29817116420034,39.19969617476631,14732008.0,117.29817116462405,39.19969627119857,16504083.0,117.29817114708655,39.19969620470049
CHN,AnHui,140685.78427672366,117.28733111053764,31.800530346656807,60556396.0,117.10735449969388,32.22604287092282,60302209.0,117.11319407344537,32.220109863401746,59864656.0,117.118923738079,32.21430893305759,59244716.0,117.12453225631187,32.20865986591414,58114568.0,117.13000588845793,32.203183217675395
CHN,HuNan,212813.8010974619,111.7970497646313,27.58458319132338,64466280.0,112.0680478594651,27.669623405225902,65399809.0,112.08228398690976,27.673552497983714,66102894.0,112.09676764772216,27.677588561032984,66561640.0,112.11149072935751,27.681738417380327,66387108.0,112.12644289181088,27.686007251542062
CHN,LiaoNing,145917.15042331236,122.65728116240636,41.28067967811651,42612425.0,122.56583018179292,41.09259821526223,43376626.0,122.57030174582096,41.077918237979674,44014073.0,122.57472302493244,41.06337469206635,44514181.0,122.57908263851135,41.048983951497675,44613451.0,122.5833727255084,41.03476083237569
CHN,GanSu,343420.59069473593,102.86936749366647,37.319611809445604,25640384.0,104.62570981319075,35.90790787640177,25725831.0,104.59242748513604,35.9173744998115,25731802.0,104.55878114867222,35.92742855755604,25656162.0,104.52478856569829,35.93806159219775,25353311.0,104.49046175470636,35.949272120764796
CHN,HeiLongJiang,405488.3168892484,128.41015556929582,47.25764873960053,36920325.0,127.66742798563408,46.532380479096396,37787040.0,127.65415135000846,46.51509671761541,38548498.0,127.64116580519163,46.49789214974739,39193087.0,127.62846970347545,46.480792798552,39485296.0,127.61605722008503,46.463821717244265
CHN,QingHai,432072.0109521774,98.21977725348887,35.503303645982825,4913824.0,101.27659750277819,36.235605689989455,5276095.0,101.2012292246045,36.21217018479803,5661170.0,101.12096372625061,36.18736242178991,6069982.0,101.03570822433821,36.16124917506009,6466708.0,100.94541543912499,36.13393027216736
CHN,ShanDong,155842.66031873302,118.20307789615649,36.33696397664408,91666934.0,118.06361077642414,36.20585563901507,94171876.0,118.07495268913368,36.213813325682416,96379042.0,118.08650786332716,36.22175086420271,98255456.0,118.09827353621267,36.22966451153056,99206377.0,118.11024981521783,36.23754932290462
CHN,SiChuan,446360.38288063224,103.1596993817329,30.4871343386407,83899770.0,105.05930817250827,30.2682298585811,82357426.0,105.01320440480812,30.25763661719124,80909743.0,104.96452248294014,30.2479610898328,79558717.0,104.91343938935397,30.239399842910505,77861826.0,104.86020323590414,30.232137192934907
CHN,GuangXiZhuangZuZiZhiQu,237576.17611660672,108.88946068780156,23.813016524028654,44680772.0,109.31507754457097,23.495973982009442,45572320.0,109.31716959032468,23.484294004813727,46305452.0,109.31894469273132,23.472617640471423,46867071.0,109.32040324551234,23.46094451535666,46978492.0,109.3215514994883,23.44927669734657
CHN,HaiNan,34261.06553170296,109.75990473410828,19.192079215254886,7724839.0,109.89496976977604,19.34367006488221,8214699.0,109.9028970920815,19.35036079002361,8724569.0,109.91123061061847,19.35739856737323,9254727.0,109.91993598093502,19.364756528048318,9749929.0,109.92897394305604,19.372401442728957
CHN,ShanXi,156699.6916384597,112.37170634007902,37.52973816992486,33083022.0,112.3474584710874,37.22127287435588,34538281.0,112.34943482783788,37.23467510043452,35930703.0,112.35153034156241,37.248461694728114,37245102.0,112.3537445910017,37.262630991903,38248828.0,112.3560781630491,37.277172695212215
CHN,XiZangZiZhiQu,765362.0779127502,84.54933608853156,30.80553874630499,2665621.0,94.44665221176919,30.064204679132455,2842300.0,94.45039699703305,30.0833690231938,3020541.0,94.453442166509,30.102661955745457,3198928.0,94.45576449722087,30.122085221851066,3356750.0,94.45738269709815,30.14160536238619
CHN,Shaanxi,205770.02302110413,109.03007427044733,35.128101750110226,36243622.0,108.93509261528526,34.632325995416956,36956239.0,108.93289119047682,34.630045512844326,37555854.0,108.93080185027563,34.627584097977035,38033588.0,108.92882894201355,34.62494010021234,38164479.0,108.92697435346312,34.62210928276616
CHN,NA,1933804.8605233282,103.16252884582836,38.85754822211738,0.0,0.0,0.0,0.0,0.0,0.0,0.0,0.0,0.0,0.0,0.0,0.0,0.0,0.0,0.0
RUS,Omskaja,140692.80529737362,73.16005768160953,56.04669761522013,2113574.0,73.31614776455851,55.12333250600848,2031916.0,73.31614605616637,55.1233338327351,1981839.0,73.31614549538115,55.12333134081802,1940388.0,73.3161457799433,55.12333385328294,1885537.0,73.31614616470974,55.12333444440709
RUS,Smolenskaja,49647.775835307584,32.97893033530979,54.94463620786691,1070358.0,32.75073809801932,54.85951631749692,1020755.0,32.750735294874346,54.8595151708095,987618.0,32.7507374317863,54.85951542025056,959210.0,32.75073519048907,54.85951584854694,924620.0,32.75073856585677,54.85951686902327
RUS,Marij Jel,23331.05763694371,47.919665749066425,56.574630164494515,738934.0,48.08124403609484,56.5397183246474,712970.0,48.08124499274612,56.539718474442985,697930.0,48.081242479172936,56.53971664330157,685819.0,48.08124396145467,56.539717574100194,668857.0,48.08124087033004,56.539717935769204
RUS,Hakasija,61398.26645571635,88.22579653300369,53.361305551832324,551675.0,91.42293722976653,53.571312044369385,538619.0,91.42293846062147,53.57131186773334,533528.0,91.42293809652179,53.571312998268816,530502.0,91.42293805706547,53.571310542510545,523534.0,91.42293846765183,53.57131354922149
RUS,Tul'skaja,25662.08552560033,37.56951509571945,53.881802296907196,1714300.0,37.74244651591939,54.03904053281643,1622104.0,37.742446558307556,54.039040292654526,1557207.0,37.742446387091576,54.039039888716566,1500615.0,37.742445658133825,54.03904010646394,1435224.0,37.74244526693118,54.03903945721837
RUS,Komi,415349.12949013076,54.061122232435174,63.927932771962055,1054436.0,53.4248016464097,63.43904607792188,968809.0,53.42479488049789,63.439041598215404,903092.0,53.424789573298646,63.43904167237372,845047.0,53.42479990921202,63.43904433281811,784797.0,53.42479569195831,63.43903918658284
RUS,Tjumenskaja,1372894.8215465003,70.32695302860628,63.781494859723985,3245444.0,67.95796202208763,60.58370987890582,3299330.0,67.95796112264735,60.58370964396828,3402926.0,67.9579618157606,60.583707966990474,3523183.0,67.95796236240909,60.58370987301031,3620308.0,67.95796329640994,60.58371144682351
RUS,Severnaja Osetija - Alanija,8375.28102052086,44.27968405408173,43.10658552225288,712351.0,44.53210292340783,43.075325622269574,708283.0,44.5321027266705,43.07532613416427,714485.0,44.532102812667624,43.07532631060261,723498.0,44.53210236822197,43.07532584044404,727123.0,44.532102769088766,43.075326519789684
RUS,Sankt-Peterburg,2593.344046655261,30.338458566208494,59.9936299064136,4626043.0,30.327450212714595,59.9258886673149,4721890.0,30.327450281350735,59.92588866741243,4889869.0,30.32745030030118,59.92588857949901,5083169.0,30.327450414442378,59.925888564505776,5244450.0,30.327450187365752,59.92588861026904
RUS,Magadanskaja,460827.35062520177,153.95366076663908,62.603319648762984,190526.0,151.08834246961524,60.52341180951337,171887.0,151.08838760500782,60.52343736308985,157328.0,151.08840841422946,60.52345356099297,144551.0,151.08841427739083,60.52344424104798,131815.0,151.08834440600012,60.52341981959455
RUS,Ivanovskaja,21594.874007162012,41.543556290275646,56.986011874348435,1175624.0,41.31285343360009,57.04205558031841,1110313.0,41.3128523796255,57.042055686939584,1063893.0,41.31285366457571,57.04205580057016,1023309.0,41.31285219344195,57.04205496808082,976882.0,41.31285417885853,57.042054911541854
RUS,Arhangel'skaja,578684.0057578607,46.39088781562118,66.34716794392901,1370539.0,41.96277050868235,63.532481796836606,1289137.0,41.96276847785992,63.53248640511354,1230220.0,41.962764796033696,63.53247876325902,1178479.0,41.96276672593793,63.53248057502646,1120438.0,41.962762191831025,63.5324784452926
RUS,Rostovskaja,100432.01206903247,41.30135591548531,47.711711648039405,4453298.0,40.247325870129195,47.49581956671558,4337908.0,40.24732486786602,47.49581951258452,4287008.0,40.24732512116723,47.49582034816483,4252892.0,40.2473260886881,47.49581981125855,4187377.0,40.24732479475227,47.49581998652715
RUS,Chuvashskaja,18361.604374781786,47.07864149921895,55.48479428296276,1334918.0,47.220718058761975,55.816816247985194,1284647.0,47.22071830175246,55.816816823485375,1254264.0,47.22071712610015,55.81681557032732,1229272.0,47.22071646808133,55.816816402789385,1195738.0,47.22071740759588,55.81681614294235
RUS,Kirovskaja,120228.25338158019,49.75415068274148,58.634999236019915,1553056.0,49.70175935035247,58.34713094431901,1434429.0,49.701756118637036,58.34713236557979,1344144.0,49.701759940720954,58.347131087126286,1264357.0,49.70175585775007,58.34712872740625,1180372.0,49.70175080064135,58.347133173672965
RUS,Astrahanskaja,51436.176013473654,47.26346934852739,47.027255665787266,1007974.0,47.74858368753317,46.60825623675004,1002816.0,47.74858302141386,46.60825797573385,1012206.0,47.74858406158581,46.60825689644852,1025587.0,47.7485833489441,46.6082569929009,1031343.0,47.74858418591702,46.608256318671145
RUS,Jaroslavskaja,34559.084945740826,39.15363985310304,57.90041581642293,1397615.0,39.46480240913855,57.665738976141114,1325370.0,39.46480456607703,57.66573847146382,1275155.0,39.464802781733574,57.66573809664492,1231528.0,39.46480413302696,57.66573932925739,1180467.0,39.46480358049282,57.66573899570738
RUS,Leningradskaja,78066.59258988248,31.6724321749362,59.95546337621138,1663926.0,30.673129283113582,59.858077805757624,1679792.0,30.673127074339448,59.85807769846522,1720494.0,30.67312842800231,59.858077445907526,1768911.0,30.67313072830279,59.85807790503261,1805043.0,30.67312897669405,59.85807786525776
RUS,Chukotskij,716063.2891689067,167.74944976319307,66.39151213856496,54893.0,172.8391703007693,66.06937462294368,52341.0,172.83915859439733,66.06938722207944,50633.0,172.83908084989275,66.06936696517538,49169.0,172.8393152863608,66.06939083434094,47386.0,172.8390913515314,66.06937540825352
RUS,Tomskaja,313581.451047957,81.45572757041145,58.44798810165573,1049755.0,83.75503585167249,57.02880625143938,1042126.0,83.75503421523688,57.02880641746606,1049604.0,83.75503956109573,57.02880579174234,1061179.0,83.75502818549454,57.028806040269245,1064828.0,83.75502353312092,57.028808644336785
RUS,Vladimirskaja,30069.889036847584,40.611628532559074,56.03108273902216,1550742.0,40.59566694370274,56.077622246675524,1487058.0,40.595668628179,56.07762204537642,1446739.0,40.59566526849318,56.07762232095155,1412898.0,40.595666384699484,56.07762154746311,1369484.0,40.595668003875254,56.0776216256487
RUS,Altajskij,167462.52874640448,82.16751242594628,52.586091164373826,2666875.0,82.68341919310082,52.80697658256879,2524685.0,82.68342163554007,52.806976621412325,2424862.0,82.68342372352436,52.806977037386254,2337889.0,82.68341928451986,52.80697630140245,2237108.0,82.6834233060798,52.80697717111104
RUS,Ingushetija,3179.4543880932565,44.94228877016591,43.1226238690121,483955.0,44.91692476694324,43.21967771178059,444069.0,44.91692465845424,43.2196775761776,413399.0,44.91692460675974,43.219677510753314,386319.0,44.916924436089616,43.219678610431004,358302.0,44.916924182707945,43.2196788725682
RUS,Stavropol'skij,66185.4895286377,43.33774786266428,44.944796054469236,2733056.0,42.827445658593454,44.66591715544074,2742566.0,42.82744585515073,44.665917110583095,2792163.0,42.82744544148628,44.66591736661581,2853517.0,42.827445015202706,44.66591678298175,2894329.0,42.827445304663094,44.66591703590135
RUS,Mordovija,26055.776901243764,44.435024445562306,54.35864350934912,906305.0,44.79919971394997,54.249470972889824,864445.0,44.79919962088437,54.24947052628698,836518.0,44.79920301911118,54.24946996317274,812584.0,44.79919987660889,54.24946985326792,783412.0,44.799202007114566,54.249470357315026
RUS,Sverdlovskaja,193621.78384068975,61.35242869173355,58.50076980780009,4552194.0,60.59392539402592,57.31002590632344,4395932.0,60.59392560619303,57.31002505469635,4306821.0,60.59392533746405,57.310026714850785,4235642.0,60.593925006995015,57.31002698635799,4134358.0,60.59392444924672,57.31002654732312
RUS,Moskovskaja,45965.27735973996,37.64333470084255,55.66467147341202,6529698.0,37.79581013530746,55.69568065413885,6764673.0,37.79581023724099,55.695680894982914,7110100.0,37.7958095567145,55.69568078463005,7501721.0,37.79581045669414,55.69568035368106,7855491.0,37.795810177171994,55.69568052574827
RUS,Primorskij,161739.65059550267,134.74977851360183,45.13820293750017,2109071.0,132.60638837494386,43.70490022296083,2018858.0,132.60638804391192,43.70489995431135,1960630.0,132.6063892204317,43.70489973132539,1911353.0,132.60638920005033,43.704900126986324,1849329.0,132.60638923307067,43.704900492779146
RUS,Udmurtskaja ,42035.91124611247,52.77051878984391,57.14909620176205,1588920.0,53.10248482171516,56.98160929415028,1545238.0,53.10248484044237,56.98161056581526,1524632.0,53.10248376863348,56.981608628717204,1510047.0,53.10248491036702,56.98160956685543,1484373.0,53.10248434032086,56.9816102089775
RUS,Adygeja,7838.56386679192,39.994363771846906,44.59402693756142,450645.0,39.83803583300002,44.736451687795494,442550.0,39.83803850298895,44.73645148874085,440925.0,39.838036453297,44.736451808066064,440982.0,39.83803746966517,44.73645086709398,437734.0,39.83803676100199,44.736452499333254
RUS,Tatarstan,67835.77871094158,50.88270732647217,55.34250924446194,3792105.0,50.65900950208683,55.51578873934865,3765991.0,50.65901121617734,55.51578832935342,3794479.0,50.659008931112325,55.51578892488545,3837801.0,50.659009214389755,55.515788425152145,3852472.0,50.65900929615619,55.51578889899982
RUS,Krasnojarskij,2316200.233667942,105.93545713567191,65.39441898264643,3013182.0,97.98769452950881,56.97056854757349,2901259.0,97.98770198233305,56.970570816799096,2834158.0,97.98769743901627,56.97056629513648,2779182.0,97.98768759518475,56.97056564037861,2704819.0,97.98769783421625,56.9705703564961
RUS,Amurskaja,362013.3917067733,128.07432236919246,53.30193896281022,925582.0,127.99650431733863,51.25593675428921,871152.0,127.99650395852181,51.255937941728554,831855.0,127.99650342657105,51.25594184168785,797367.0,127.99650264208225,51.255938215818595,758572.0,127.99649927186337,51.25593417422881
RUS,Chechenskaja,15647.422174238058,45.74686898474081,43.308518535841564,1069974.0,45.75431199493597,43.28191668819925,1158072.0,45.7543122173949,43.28191655804363,1271669.0,45.75431132003963,43.281916661226816,1401746.0,45.75431147056745,43.2819166051798,1533520.0,45.754311597231634,43.281917215037836
RUS,Novgorodskaja,54890.894176910006,32.45605840734629,58.29489469044176,713046.0,32.10182287766498,58.41657235623566,668283.0,32.10182508579776,58.41657156359589,635449.0,32.10182284609799,58.41657338035708,606538.0,32.101823050860624,58.416573010411255,574594.0,32.10182999342892,58.41657384551137
RUS,Krasnodarskij,75234.17495146862,39.45281902651777,45.247826377863106,5119946.0,39.256117053392884,45.09842602365577,5141203.0,39.25611611559793,45.09842585567797,5237680.0,39.25611574289729,45.098425719102096,5356359.0,39.2561164187961,45.09842593177622,5436602.0,39.25611697268375,45.098424949166876
RUS,Ul'janovskaja ,37163.98112077674,47.921913030973634,53.87921553683695,1411730.0,48.27086324451865,54.130837972479156,1342646.0,48.270862117307225,54.130837341431,1295528.0,48.270862038551265,54.13083895968613,1254840.0,48.27086193217341,54.130839119661196,1206305.0,48.27086278936479,54.13083986055071
RUS,Tambovskaja,34393.89001248811,41.58083036590709,52.67241779012723,1205760.0,41.444553329185595,52.7188941533275,1140412.0,41.444554921163615,52.71889293677528,1094299.0,41.444554592878944,52.718894834139086,1054066.0,41.44455457415785,52.71889619130391,1007687.0,41.444553620792824,52.71889518346306
RUS,Moskva,1345.162487946785,37.54146642750044,55.71098769132035,10159300.0,37.60218597472453,55.742130397148095,10744035.0,37.60218587937775,55.742130428262904,11527782.0,37.60218587879197,55.74213044078206,12415976.0,37.602185901538725,55.74213044011255,13272219.0,37.60218583444943,55.74213047207298
RUS,Saratovskaja ,100559.17134316986,46.74598621384554,51.57116323202893,2716717.0,46.25373429779739,51.611161894559785,2601391.0,46.25373470651322,51.61116219001058,2527214.0,46.25373628468314,51.61116136325979,2464540.0,46.25373717698872,51.611162118913114,2385373.0,46.25373684427703,51.611161218789334
RUS,Volgogradskaja,112607.76013240108,44.117655729476205,49.59334103158255,2732515.0,44.29528985613893,49.160770141189545,2654213.0,44.295290452512525,49.160770176332484,2615673.0,44.295289609238004,49.160769722160396,2587542.0,44.295290515216806,49.16076897990096,2540501.0,44.29529140110867,49.16076907349129
RUS,Saha (Jakutija),3064578.8456284427,131.81105684608244,65.213979636487,950654.0,127.67414712349661,62.10263496965343,948711.0,127.67412326724684,62.10262969915001,960550.0,127.6741277594212,62.102617923082256,976254.0,127.67413520928937,62.10261686782455,984767.0,127.67414534213475,62.10263114268734
RUS,Orlovskaja,24604.39646603999,36.47857843676174,52.7769598706602,883049.0,36.37925734364021,52.85600689470126,828479.0,36.37925748502298,52.856006442871966,788595.0,36.3792581386485,52.85600737026625,753502.0,36.37926018217751,52.85600732063072,714566.0,36.379262304268806,52.856006361690504
RUS,Burjatija,350840.2906693545,109.91764680184188,53.44510773144208,987371.0,107.79541799947413,51.97131796889402,973638.0,107.79540745370515,51.971311206220335,974075.0,107.79541330497145,51.971311963293886,978234.0,107.79541154529223,51.97131063655453,975031.0,107.79540668113158,51.97130673304697
RUS,Kaliningradskaja,13531.344999022234,21.45041296823911,54.70425469346503,962381.0,20.813018514570288,54.72770623814886,946216.0,20.813017436260573,54.727705671912446,943860.0,20.81301788015445,54.7277059133574,945111.0,20.813019648047007,54.727705190795184,939257.0,20.8130188245088,54.72770579503271
RUS,Lipeckaja,24023.453296198866,39.142435133258374,52.63881244727379,1228452.0,39.33724459552723,52.60894106653226,1193283.0,39.337245340168565,52.60894200477499,1175990.0,39.33724428752937,52.6089415729239,1163379.0,39.33724544408301,52.608942337004535,1142261.0,39.33724465494551,52.6089420041295
RUS,Orenburgskaja,124260.0605007513,55.56255790379957,51.97343192785092,2226391.0,55.59948889417871,51.90254373617201,2114455.0,55.59948573620443,51.90254514347891,2037363.0,55.599484698686396,51.90254524091472,1970590.0,55.59948906024459,51.90254466165527,1891695.0,55.59948910042654,51.90254399504976
RUS,Kostromskaja,60074.17120478732,43.732912250495964,58.44577886231359,757928.0,42.08863093419609,58.026512470518554,706938.0,42.08863421849507,58.02651230814603,668971.0,42.08862459898373,58.02651083758621,635463.0,42.088630281537874,58.02651268311007,599107.0,42.08864546382217,58.02651389819333
RUS,Nizhegorodskaja,76623.21858799378,44.54563946311167,56.2769385770303,3593380.0,43.92454090344116,56.12280641959353,3427879.0,43.92454109968531,56.122805915163866,3317586.0,43.92454115841651,56.12280636569814,3223112.0,43.9245408970725,56.12280581908162,3107820.0,43.92454062705357,56.1228058634325
RUS,Penzenskaja,43281.31121007622,44.62075112209163,53.177247734930624,1475826.0,44.9222515802721,53.17664876420929,1421507.0,44.92224936811884,53.176648998271084,1389111.0,44.92225182302423,53.17664878951952,1362645.0,44.92225270415105,53.176649041774894,1326642.0,44.92225232888978,53.176649560092606
RUS,Samarskaja,53434.7179777875,50.43320157989076,53.263072919771666,3258402.0,49.950635707509534,53.32301991712366,3216985.0,49.95063545040662,53.32301975296927,3222319.0,49.950634961988605,53.32301967743471,3239997.0,49.950636328630274,53.32302022326754,3233317.0,49.950634562643685,53.32301993419119
RUS,Kemerovskaja,95514.42079754817,86.47713383067988,54.73619166029765,2945555.0,86.2249666214939,54.61293755283476,2835339.0,86.22496580074232,54.61293804260268,2768969.0,86.22496728308097,54.61293779983518,2714484.0,86.22496707723141,54.612936956530305,2641095.0,86.22496675922685,54.61293706335214
RUS,Pskovskaja,54852.4684436485,29.249149118265496,57.207087201431044,787414.0,29.122019596703463,57.217731250848324,723712.0,29.122020210404685,57.21773260759464,674846.0,29.12202088179828,57.2177293552984,631682.0,29.122018212010634,57.217730220701284,586840.0,29.122022814281582,57.217733083572
RUS,Brjanskaja,34907.1619365329,33.41295241379366,52.89986542942439,1410788.0,33.692919656046115,53.04464863250941,1334608.0,33.692918598033465,53.044648198911844,1280914.0,33.69292050025345,53.044649400078136,1234081.0,33.69292074718186,53.04464860818619,1180034.0,33.69292146331462,53.04464988711547
RUS,Voronezhskaja,52153.9181600322,40.22057226141372,50.95940101387105,2399048.0,39.76552437336883,51.28419239883995,2352444.0,39.76552484160314,51.284192328510116,2340312.0,39.76552520288305,51.28419159101216,2337139.0,39.76552473389318,51.284191792482616,2316448.0,39.76552586719455,51.284192314220036
RUS,Rjazanskaja,39629.86622957367,40.60998123378672,54.32596904979972,1251919.0,40.11405369261887,54.45716672791685,1194631.0,40.1140546387809,54.45716683516973,1156547.0,40.114055515419686,54.457168157261506,1123964.0,40.114053529827,54.45716592444304,1084094.0,40.11405268812939,54.45716662459275
RUS,Murmanskaja,142555.86649964037,34.595409667251694,67.76859459647616,922177.0,32.86368595572411,68.46816786114579,851182.0,32.863690201155904,68.46816722716041,797087.0,32.86368660072824,68.46816786290908,749286.0,32.863686281030276,68.46816828856028,699059.0,32.86368245779207,68.46816739693513
RUS,Karelija,176733.72302076136,33.05426200333467,63.34124003426884,738567.0,33.57632182983192,62.412499201544684,685182.0,33.576316397654274,62.41249790554749,644906.0,33.57631921852952,62.41249460437549,609318.0,33.57631664491307,62.41249818838295,571374.0,33.57631037952443,62.41250306568802
RUS,Tverskaja,84299.16792226996,34.64271696769038,57.07383916793892,1508374.0,35.35863582255025,57.00979079816761,1419994.0,35.358635758277096,57.00979148284552,1356249.0,35.358636254111204,57.009790387801,1300317.0,35.358631468114694,57.00979094782728,1237329.0,35.35863750636319,57.00979199112486
RUS,Sahalinskaja ,84424.98856232202,143.8347528895862,49.7705055897122,561773.0,142.94857760145794,47.899776450587744,525658.0,142.9485722015223,47.899775208836374,499026.0,142.9485706646448,47.899780756152225,475550.0,142.94858511523185,47.89977734314073,449779.0,142.94858615389188,47.89979230852105
RUS,Vologodskaja,145136.31292597385,40.39539414836523,59.9484835485634,1291914.0,39.588026569218016,59.46307568306232,1238711.0,39.58803272983562,59.46307838556096,1204981.0,39.58803333161762,59.46307669618335,1176650.0,39.58802819584282,59.46307661563981,1140360.0,39.5880314400031,59.46307630642771
RUS,Tyva,168217.59570885092,95.52852990244511,51.563455968975276,306091.0,94.0793188766866,51.451696283518785,305119.0,94.07930548289224,51.45170177530028,308579.0,94.07930207019,51.45169915717815,313273.0,94.07930803601651,51.4516917290457,315649.0,94.07930761819358,51.45169374097332
RUS,Kabardino-Balkarskaja,12466.736666491075,43.405389511040845,43.49276106413457,915731.0,43.62003186657506,43.54063797868176,881938.0,43.62003119883143,43.54063788345332,861757.0,43.6200317563281,43.540637749020405,845251.0,43.620030775479385,43.540637713983166,822841.0,43.62003142906033,43.54063821668007
RUS,Irkutskaja,772911.4548714741,107.38945360986106,56.839710077184314,2631589.0,103.88545500428191,53.909239341128696,2512583.0,103.88545781430506,53.9092410347694,2433879.0,103.8854586208978,53.90924112545774,2366642.0,103.88545059028102,53.9092383651509,2283992.0,103.88546166384954,53.90924345781372
RUS,Kaluzhskaja,29782.749809725094,35.430387314416876,54.36586057239319,1053531.0,35.95627773764482,54.5808911369271,1025663.0,35.95627620649255,54.58089237298834,1013063.0,35.95627492110819,54.58089109566245,1004445.0,35.95627483564438,54.580891081669364,988420.0,35.956273800962826,54.58089197906717
RUS,Karachaevo-Cherkesskaja,14317.997796546388,41.75026950332695,43.768277335712654,432034.0,41.94105982648871,43.99101924888295,451574.0,41.94105815958068,43.991019178770486,478867.0,41.941058638384234,43.991018889582,509751.0,41.941058857688546,43.99101863254775,538555.0,41.9410588717779,43.99101955614187
RUS,Permskij,160457.05643298174,56.099679837586315,59.03886596720499,2878553.0,56.143808633117935,58.104111650361524,2737287.0,56.143808433841855,58.10411092059795,2640834.0,56.14380869359109,58.10411111176126,2557526.0,56.14380897028556,58.10411135379276,2458241.0,56.14380849482744,58.10411254482457
RUS,Kurganskaja,71445.3655819207,64.75742328959444,55.43843577934173,1052750.0,64.78225983671513,55.50429339389898,973186.0,64.78226256360558,55.504291402069704,912730.0,64.78226249987435,55.50429221983665,859301.0,64.78226568201106,55.504290783011406,802924.0,64.78226446344446,55.50429154851417
RUS,Zabajkal'skij,431144.21056311246,116.4232933790914,52.68247131951427,1172261.0,114.98956583635734,51.567720295935246,1132211.0,114.98955112186545,51.567717475154296,1109444.0,114.98956330046012,51.56772017297774,1091292.0,114.98956620768331,51.5677260343621,1065376.0,114.9895603235161,51.56772245656117
RUS,Kurskaja,29885.473880128247,36.099595848294484,51.67811546613385,1268575.0,36.004025703086654,51.7340409375054,1188383.0,36.00402835938167,51.734041320603474,1129460.0,36.004024927469075,51.73404012991215,1077560.0,36.00402901666421,51.734041027094364,1020332.0,36.00402582823668,51.734040706891584
RUS,Novosibirskaja,177459.0393685146,79.39496480987339,55.250249659680975,2709339.0,81.8714211742317,54.942839429368455,2671007.0,81.8714181968988,54.94284034238175,2671539.0,81.87141982507323,54.942839518017244,2682283.0,81.87141649192273,54.94284026077115,2672848.0,81.87142549352335,54.942839164441004
RUS,Bashkortostan,142713.3760933456,56.460720635527586,54.22038990790883,4128332.0,55.889379369128704,54.41143477464481,4074999.0,55.88937890479011,54.411435547021256,4080893.0,55.88937880173866,54.41143488624039,4102407.0,55.889377765129,54.411434445859555,4093085.0,55.88937928100965,54.411435474231915
RUS,Kamchatskij ,462134.23897855496,162.46972611129175,58.41911264311914,370047.0,159.09664043380982,53.71884338145863,343107.0,159.09663575619084,53.71884493096517,322759.0,159.09663924460736,53.718854447949425,304777.0,159.09661960568394,53.718821329872185,285635.0,159.09663742824984,53.71882327727646
RUS,Dagestan,50181.69790591425,46.852696621823135,43.0183902206895,2508952.0,47.3067063890073,42.804982166009935,2685542.0,47.30670548860798,42.80498241030251,2916390.0,47.30670575545825,42.80498206223283,3179190.0,47.306706174692394,42.80498275032202,3439659.0,47.30670580494303,42.80498168468655
RUS,Belgorodskaja,26886.25938115223,37.494431642505525,50.67046911179368,1512280.0,37.230857672702804,50.742500609076465,1513005.0,37.23085726736528,50.74249995454404,1535764.0,37.23085742763936,50.74250032281035,1564816.0,37.2308564589286,50.74250023539462,1582455.0,37.230858507689064,50.742500221113694
RUS,Cheljabinskaja,88469.31867706437,60.31727059289232,54.406572607267904,3649938.0,60.48842857441433,54.77011022983558,3540110.0,60.488428318655345,54.77010974816701,3483555.0,60.48842922444994,54.770110624901825,3441008.0,60.48842876250081,54.77011010206663,3373460.0,60.488429560510426,54.770110786755744
RUS,Altaj,92874.5428727661,86.58748025591998,50.71908200505707,202934.0,86.00209759281077,51.27746013223881,203286.0,86.00210935992,51.27745120809204,206604.0,86.0021056369371,51.27744858723701,210776.0,86.00211501101337,51.27746160150967,213421.0,86.00210693275633,51.27745881311212
RUS,Habarovskij,783329.5960175785,137.48453105000493,54.1883568385983,1466394.0,136.0709528553076,49.40548714565766,1395160.0,136.07094859696883,49.40548375553793,1346708.0,136.0709476782064,49.40548395068309,1304905.0,136.07094634350906,49.40548659362143,1254906.0,136.0709468715069,49.40548182480844
RUS,Evrejskaja ,36324.6543421795,132.28930936078467,48.51441333784869,195438.0,132.70850437088853,48.61122540486498,184615.0,132.7085029646602,48.61122646850853,176930.0,132.70850062632354,48.61122404938438,170214.0,132.70850172408876,48.61122518985274,162522.0,132.70850516946285,48.6112263655717
RUS,Kalmykija,70992.20779812927,45.25831809305097,46.43452263374128,294285.0,44.52690693767522,46.34937651745461,290076.0,44.52690064258322,46.34937178971657,290091.0,44.526895474771145,46.349369257861525,291216.0,44.5268970724384,46.34937788423831,290149.0,44.52689881093906,46.34937259701154
CAN,Manitoba,648206.6377672208,260.6086523537268,54.615923077657065,1122964.0,261.95670543622646,50.24757119974156,1172457.0,261.9775175145184,50.23651006766088,1232016.0,261.9964317501318,50.22472199417572,1288919.0,262.0147001450439,50.212519195618334,1339317.0,262.0312784497031,50.20023033250757
CAN,New Brunswick / Nouveau-Brunswick,73100.96288472813,-66.32784418275936,46.60032385468663,733689.0,-65.89996664266245,46.33358276565794,749091.0,-65.88846102780072,46.311932193964935,769990.0,-65.8771083873764,46.290544141662814,787598.0,-65.86534387408938,46.269611232007115,801210.0,-65.85362868149949,46.24931728477298
CAN,Nova Scotia / Nouvelle-Ecosse,55634.23079351386,-63.2987862674622,45.13144527775559,939351.0,-63.253945998262466,45.04072510655401,941011.0,-63.27362910910246,45.030105091552606,948593.0,-63.292732303397536,45.01961303100373,951608.0,-63.31036747054403,45.009309012715505,947396.0,-63.328191663160794,44.999163447243255
CAN,Prince Edward Island / Ile-du-Prince-Edouard,5891.379769456033,-63.23389064633834,46.38900856478773,135882.0,-63.301818037097604,46.351575742866714,139345.0,-63.29999926697067,46.348862588784925,143565.0,-63.297312565692614,46.34609728302218,147345.0,-63.293857962085916,46.343203064826,150043.0,-63.29110098390438,46.34038802713203
CAN,Alberta,661751.2427990412,244.9549523552588,54.847792829533866,3022724.0,246.06635627265257,52.37419332812542,3327196.0,246.06436295555645,52.37479276801363,3679214.0,246.06369866388894,52.37547133229856,4054062.0,246.06264133364232,52.378255168421546,4429796.0,246.06346597142004,52.38278227010032
CAN,Ontario,985716.8395617602,-81.88219350614843,50.139046071434606,11838570.0,-79.2955719957775,44.03193305011949,12413288.0,-79.2775049172437,44.02057369709705,13104174.0,-79.2607776092379,44.01004010029443,13775401.0,-79.245064304727,44.000338315291195,14387151.0,-79.23073923023442,43.991711090310645
CAN,Quebec / Quebec,1507106.9961253388,-70.03113492627989,52.74494329185284,7424764.0,-72.73351501423409,46.13342235370961,7716225.0,-72.75747606322905,46.1214968249076,8072484.0,-72.78144914526261,46.10966352178436,8406587.0,-72.80562006288098,46.097876101041535,8694212.0,-72.8290633062068,46.08644770876764
CAN,Northwest Territories / Territoires du Nord-Ouest,1343750.6589715779,239.39569487532287,65.30252448816701,43011.0,240.71281451692823,63.17063094564676,42758.0,240.76259819816505,63.16662055125124,42728.0,240.81965530216146,63.15983884855607,42450.0,240.86790645433638,63.15670922621735,41812.0,240.92581271553365,63.14835416551046
CAN,Nunavut,2084406.2171124017,250.70281623273615,68.59464912710125,27811.0,-72.60945537304318,65.5448510227469,29926.0,-72.60618310395878,65.56817432987434,32357.0,-72.60749126743951,65.58969973811837,34805.0,-72.60789869734774,65.61669512056918,37093.0,-72.60900689086334,65.64114638413551
CAN,Newfoundland and Labrador / Terre-Neuve-et-Labrador,406291.9130066556,-59.64244522851128,52.60759979523496,514712.0,-54.70443147143519,48.43996644202293,519825.0,-54.6451568657751,48.41630374386195,528484.0,-54.586732363676916,48.39269848263536,535018.0,-54.52871410640169,48.36922718585701,538027.0,-54.471772178379496,48.345981598316484
CAN,Saskatchewan,651059.5717908952,253.1030757145703,54.05245577436103,930695.0,254.07713126506013,51.62761786800351,986437.0,254.07409320241433,51.63342885942978,1048826.0,254.0692051623147,51.640893923140034,1113370.0,254.06308564811252,51.64814434856178,1173767.0,254.05786398967064,51.653484971935946
CAN,Yukon,481829.5184935545,224.4537171480091,63.319218349510685,27580.0,224.82108249474106,61.0117549981499,30735.0,224.817837902416,61.01511782660123,34133.0,224.82058653949164,61.01220010438187,37933.0,224.81911024697445,61.01417603593613,41560.0,224.8208356908303,61.01185430090569
CAN,NA,91163.37779991262,-81.7516021079951,45.53605934206247,0.0,0.0,0.0,0.0,0.0,0.0,0.0,0.0,0.0,0.0,0.0,0.0,0.0,0.0,0.0
CAN,British Columbia / Colombie-Britannique,946372.0257005433,234.97410115042783,54.34685715027744,3940888.0,237.33190641330384,49.69267495460014,4188345.0,237.3392093560045,49.665477183857746,4475866.0,237.34579517344798,49.63970441718194,4757078.0,237.35165250605738,49.61590803594136,5016937.0,237.35654177336042,49.59384542013757
AUS,Victoria,227730.67614292397,144.31946256289547,-36.82808480812762,4759411.0,144.95767398325984,-37.71346172283853,5050075.0,144.95767421661952,-37.71347173012009,5520470.0,144.9576679727206,-37.71347595183564,5970388.0,144.95767583036377,-37.713488423965764,6376059.0,144.95768028941745,-37.71349781786469
AUS,Australian Capital Territory,2363.138462063679,149.00302716051993,-35.48831345882755,317419.0,149.09356337754505,-35.29881890354657,336842.0,149.09356594690968,-35.29882366096024,368257.0,149.09356921893047,-35.298815109698744,398288.0,149.09357131195415,-35.29881111093044,425404.0,149.0935787956449,-35.2988069388578
AUS,Other Territories,218.2509174315467,125.0574491542628,-17.78684368165117,2672.0,114.89383100548304,-13.722083282295074,2835.0,114.87450067128147,-13.71380347253062,3101.0,114.83044574256749,-13.69886796722853,3352.0,114.8134372718651,-13.691423981382723,3580.0,114.75974674479477,-13.67207609433141
AUS,South Australia,986906.4625348466,135.9207974994241,-30.014694025619974,1418805.0,138.62831744880748,-34.84201141549321,1505431.0,138.6283212565432,-34.84202212772389,1645603.0,138.62832290364457,-34.84204177761832,1779675.0,138.62831681658395,-34.84204212387945,1900493.0,138.62831019423078,-34.842037377271616
AUS,Northern Territory,1353601.321242379,133.56482653210531,-19.284412893742626,186830.0,132.24741831958448,-14.776143954419265,198292.0,132.24746584962668,-14.77575708776648,216813.0,132.2469680827068,-14.775054876264676,234556.0,132.24672764149153,-14.77436598916907,250560.0,132.24639518371515,-14.77365274414002
AUS,Western Australia,2536343.0839820174,122.87974199308806,-25.18459887109632,1986547.0,116.48897055700846,-31.48906782407451,2107933.0,116.48905417940833,-31.488975962044325,2304387.0,116.48896907690506,-31.48902321749723,2492313.0,116.4889834773149,-31.48900872682336,2661811.0,116.48894851540959,-31.488994851035944
AUS,Tasmania,68468.3564194591,146.63076760375557,-41.94694071793573,439952.0,146.9860698423131,-42.073571736597714,466823.0,146.98603780700398,-42.07354626917029,510319.0,146.98603259035073,-42.07352625982351,551917.0,146.98604935416088,-42.07352858672989,589431.0,146.9860573585413,-42.073547651624224
AUS,Queensland,1738048.018384106,144.66035250447976,-22.398063252509125,3845482.0,151.78618932196295,-25.76881310451976,4080645.0,151.78621735802713,-25.76883747324252,4460962.0,151.78619255233298,-25.76876355488447,4824773.0,151.78623563749798,-25.768799129471656,5152836.0,151.78624083412137,-25.768750949080097
AUS,New South Wales,802997.6448336487,147.10753789599374,-32.09532208283494,6147825.0,150.94065558473844,-33.433234684220906,6523192.0,150.94065422347578,-33.43325041683708,7130409.0,150.94067591151372,-33.43325225587691,7711239.0,150.94068761124225,-33.43325724877538,8234982.0,150.94070903625163,-33.43326220430889
BRA,Rio Grande do Norte,53084.65170720328,-36.667996115847174,-5.8398999885499885,2874314.0,-36.11417820177436,-5.847689093486471,3105447.0,-36.09663311539286,-5.842742854408647,3298681.0,-36.078857177595154,-5.83798721858176,3480757.0,-36.06055252801493,-5.833475163003158,3647778.0,-36.04145143144867,-5.829275117605432
BRA,Goias,340430.0757000507,-49.558777534709314,-16.023131607372534,5178697.0,-49.19985303447768,-16.417836880581696,5736318.0,-49.18939419355099,-16.436561537055123,6251392.0,-49.180176730279086,-16.45396308620665,6770868.0,-49.17219467430255,-16.470135880024472,7285337.0,-49.165430834605864,-16.48518438095093
BRA,Roraima,171376.33987125545,-61.26595675294533,2.1239190193911917,335302.0,-60.757157505351174,2.637004285746081,400046.0,-60.748072998425755,2.63665089138959,469065.0,-60.74204279385395,2.637085284945789,545889.0,-60.73877108523781,2.6382123474793246,630112.0,-60.73785212586169,2.6399096858335853
BRA,Mato Grosso do Sul,358183.60993111576,-54.77766742987727,-20.30117586668768,2150685.0,-54.57877482633564,-20.989373898395208,2362662.0,-54.57097976478277,-20.992403820638106,2550033.0,-54.5627518214075,-20.99479201301225,2731976.0,-54.55411587450977,-20.996379776249025,2904725.0,-54.54519809708967,-20.99703571573171
BRA,Paraiba,56805.72070026418,-36.82499041434457,-7.120523957288807,3564589.0,-36.06184595522673,-7.085589820194904,3774196.0,-36.0422496539248,-7.086349266939396,3921902.0,-36.02231945948635,-7.087075014435662,4040406.0,-36.00204052462661,-7.087769310193372,4125172.0,-35.981434834710704,-7.0884167653407815
BRA,Mato Grosso,878846.0070928975,-55.74156414959094,-12.941450134317362,2596645.0,-55.76005083999411,-14.309471945884564,2879476.0,-55.7551982906284,-14.273636608914373,3160276.0,-55.753392387390626,-14.226164072061097,3471718.0,-55.75558674021167,-14.166945449730513,3820590.0,-55.76277058637522,-14.096370063661
BRA,Para,1110343.113659811,-52.73088444284588,-3.7322877722652255,6405198.0,-49.51915319718096,-2.531154469105737,7152641.0,-49.509425877146136,-2.572796347105159,7893672.0,-49.5069761107084,-2.62951537036553,8709089.0,-49.51182481389923,-2.703634326409649,9617908.0,-49.52441402410203,-2.7977038212826058
BRA,Santa Catarina,94784.74510181528,-50.47428856560198,-27.235997082222816,5543966.0,-49.829661503254584,-27.23251594179978,6056310.0,-49.78503087164025,-27.227639336828368,6506082.0,-49.741009252061225,-27.2224911539633,6944015.0,-49.697565457078525,-27.217071311591233,7361283.0,-49.654646245168856,-27.211401836230458
BRA,Rio de Janeiro,42803.55991508311,-42.62034408381639,-22.173990046016122,14896204.0,-43.183553376323374,-22.702653197318156,15888933.0,-43.17476682521045,-22.70236843799401,16649335.0,-43.16389883196488,-22.701873017714647,17327610.0,-43.15017202333145,-22.701064238668796,17924252.0,-43.132467777169545,-22.699782095235058
BRA,Distrito Federal,5568.845722090091,-47.79630514409396,-15.78359142929521,2128759.0,-47.9774345980528,-15.822417478700935,2411455.0,-47.97743575441152,-15.822416892652015,2676181.0,-47.977435004402494,-15.822416104471731,2939176.0,-47.97743611865158,-15.822416628675416,3193481.0,-47.97743531660595,-15.822416088074359
BRA,Bahia,564140.577849503,-41.657500308809624,-12.449692275913888,13524307.0,-39.81075393186367,-12.920492934600594,14163520.0,-39.801086219859414,-12.904747646817285,14592554.0,-39.793003806962105,-12.892159219004636,14940187.0,-39.78657114252153,-12.882352618302239,15193056.0,-39.78187081612945,-12.87503787727909
BRA,Pernambuco,98571.59842746457,-37.977115568889666,-8.325249366055415,8195490.0,-36.00508064485016,-8.192535912707628,8743787.0,-36.01990471673225,-8.197004218056072,9157200.0,-36.03594459609377,-8.201722606780065,9510095.0,-36.053235160145704,-8.206696771304394,9790853.0,-36.07179041825596,-8.211922207018462
BRA,Amapa,98822.31985335278,-51.50286626732826,1.416087958827522,494288.0,-51.21933219790897,0.2029613074745394,592392.0,-51.22350272905606,0.2126678021379713,697134.0,-51.22860010796125,0.22410547195538744,814203.0,-51.23499798976731,0.23746289580080654,943939.0,-51.24314490565753,0.2530387196976121
BRA,Parana,199098.73719591345,-51.58742290311725,-24.619982478169117,9904540.0,-51.083194300375766,-24.710534783590532,10474628.0,-51.058298924206525,-24.71604406053236,10875269.0,-51.03444850263929,-24.721330738375862,11198884.0,-51.011337980136126,-24.72652512657096,11432130.0,-50.98902061697957,-24.731585464725836
BRA,Rondonia,202810.07970821398,-62.69678879608922,-10.898109925236643,1429726.0,-62.59528055860864,-10.586419000577004,1535010.0,-62.634490413519615,-10.530606722323357,1626840.0,-62.67145864443008,-10.47701767909839,1719744.0,-62.70573960603018,-10.425815019806787,1813045.0,-62.73678181388601,-10.377059023791128
BRA,Rio Grande do Sul,271721.686754965,-53.2600337994153,-29.710560612474445,10544093.0,-52.19206308253922,-29.62227849008554,10937508.0,-52.15984543238786,-29.62614926249861,11134896.0,-52.12778199277519,-29.62923396975454,11239410.0,-52.0958582653069,-29.631573447907453,11244375.0,-52.06403116212408,-29.633207207878392
BRA,Minas Gerais,588545.5997702802,-44.57867821024369,-18.420278755456955,18523872.0,-44.270890657217485,-19.62895804603958,19624487.0,-44.2922349638063,-19.636479552574507,20405557.0,-44.313483522980775,-19.643644556073436,21039758.0,-44.33474881389299,-19.650511821805217,21505471.0,-44.356064237715984,-19.65708173699324
BRA,Ceara,149039.96263776298,-39.599581829320364,-5.09158994915897,7694791.0,-39.151062401990174,-4.560384280254613,8307573.0,-39.14290128014198,-4.542087820401606,8800933.0,-39.13476882743931,-4.52409009512457,9242371.0,-39.12666315978615,-4.506391319342763,9617895.0,-39.11854955578629,-4.488972027424997
BRA,Piaui,247697.97279722415,-42.90975594967363,-7.346175339182129,2942246.0,-42.39842508460176,-5.817842144984307,3120700.0,-42.403884152487116,-5.810716217833809,3246924.0,-42.40940700707138,-5.805173402352808,3347756.0,-42.41508770474157,-5.8012732652885095,3418987.0,-42.420941779643336,-5.798926176814506
BRA,Amazonas,1188112.4829498816,-64.05102013927258,-4.179250263208032,2913760.0,-61.2080127236462,-3.4944619194151776,3278442.0,-61.15115967972555,-3.4884225404377665,3627641.0,-61.10684180896537,-3.4819819396520666,3986455.0,-61.07365499060041,-3.475308468491315,4347706.0,-61.05023604064457,-3.468407317245076
BRA,Maranhao,330157.4327577107,-45.23342241614047,-5.063183546235457,5854143.0,-44.76321142745409,-3.9829382434501,6383819.0,-44.75385310042212,-3.9665451564088134,6845337.0,-44.745648714434004,-3.950358652972236,7292977.0,-44.73871659290821,-3.9344298850769754,7718070.0,-44.733208716843045,-3.918813950508478
BRA,Sao Paulo,246137.36156963298,-48.713434009926765,-22.233807638961366,38340189.0,-47.236674683329355,-23.00314279124948,40977157.0,-47.231378032941016,-23.002541308968297,42961612.0,-47.22639490073036,-23.001907107495796,44639585.0,-47.221767075166284,-23.001222352429007,45954427.0,-47.217491216521644,-23.000493353523765
BRA,Sergipe,21965.477621342274,-37.442401778806335,-10.581153071412125,1846549.0,-37.28728489398514,-10.78818334990404,2012876.0,-37.283978842126416,-10.78984215191756,2152673.0,-37.280617307166644,-10.791361572971203,2281650.0,-37.277199508393714,-10.792715703009444,2395812.0,-37.27374134262817,-10.79391239476382
BRA,Espirito Santo,46028.92297851267,-40.6568375694854,-19.56356073446917,3207507.0,-40.5502127840619,-20.048397182023535,3458497.0,-40.54020685266614,-20.04847580903232,3659291.0,-40.53032173431852,-20.048410373989014,3837903.0,-40.52056922917633,-20.048187240403312,3988477.0,-40.51096270524241,-20.04783345328891
BRA,Tocantins,271985.3038281338,-48.23338182455286,-10.113259379747802,1197860.0,-48.23204837926047,-9.213436035211654,1321837.0,-48.23365228835008,-9.210841986807031,1440491.0,-48.23550590904224,-9.212560599455088,1566576.0,-48.237649922792,-9.219020051855107,1699828.0,-48.2400762064142,-9.23055518133546
BRA,Alagoas,27881.502066776447,-36.61916631135195,-9.513975037837564,2921672.0,-36.27987659877179,-9.573449557228212,3110210.0,-36.27018311143547,-9.576013614650758,3249202.0,-36.260567249328474,-9.578421342011687,3364911.0,-36.2510454640021,-9.58068678729553,3452875.0,-36.24160383378442,-9.582806031784244
BRA,NA,728552.4353214522,-59.788500981930234,-4.6669626689420936,0.0,0.0,0.0,0.0,0.0,0.0,0.0,0.0,0.0,0.0,0.0,0.0,0.0,0.0,0.0
BRA,Acre,158508.62561941516,-70.365949402788,-9.180792312829304,577655.0,-69.02009596109808,-9.437919076313744,670168.0,-69.02137321469225,-9.445310418672667,763821.0,-69.02587092913487,-9.451797615712069,864078.0,-69.03411243263128,-9.457221218692363,970028.0,-69.04647784851181,-9.461482200128994
USA,Maryland,25906.776432829512,-76.72161033891877,39.04013528518989,5325344.0,-76.78188324546515,39.145970195093,5563773.0,-76.78164211792605,39.142932259212984,5786504.0,-76.78176250151716,39.140032986988174,5973506.0,-76.78181548948781,39.1371949764103,6132036.0,-76.78149815165615,39.13421751097669
USA,Wyoming,253456.4531140434,252.2685029775431,42.967117403260296,497287.0,252.7885842908348,42.66602321053672,531645.0,252.78194008977385,42.67487139739401,564089.0,252.77591082088722,42.68405421717877,596847.0,252.76770232635957,42.69467099920278,629514.0,252.7579998446907,42.70766238724353
USA,Ohio,116223.4902999551,-82.52893731202143,40.39745697332889,11410154.0,-82.55804266161967,40.474495920866495,11501058.0,-82.57092294398912,40.46210001122326,11555368.0,-82.584183908031,40.44954902748928,11553345.0,-82.59800657415678,40.43666980689791,11486779.0,-82.6128458655797,40.42291868880254
USA,South Dakota,199758.3077411629,259.47355030451,44.416963663639606,758567.0,260.5295022150315,44.04249590084895,786164.0,260.54030721046655,44.02670386437079,814935.0,260.5621060865071,44.00958002738636,844926.0,260.5938031059297,43.99142402598096,874004.0,260.6353270969713,43.97054241017397
USA,Delaware,5230.707313152494,-75.49050342011549,38.98873315341637,787785.0,-75.55269516173462,39.38840763145924,843459.0,-75.54894049579724,39.37321219963392,899556.0,-75.5451561742595,39.35769684847547,953638.0,-75.54127808273121,39.34179094564064,1005288.0,-75.5374366613308,39.32577015753204
USA,Washington,174979.20014802998,239.4687111819382,47.357759667161886,5927220.0,238.32548984058798,47.33586871861519,6336203.0,238.3250796493292,47.331044018514916,6737631.0,238.3244514144086,47.32592141057256,7114242.0,238.3256093017211,47.3202268064141,7469021.0,238.32754853933966,47.3139736384041
USA,West Virginia,62849.085239687694,-80.52802298313506,38.633213043354935,1816403.0,-80.69156795490107,38.76384189769079,1837754.0,-80.6462228282001,38.77746108550145,1855460.0,-80.5983298256256,38.79146797115105,1866178.0,-80.54652457051935,38.806504694958036,1864837.0,-80.48819650260972,38.823298650360826
USA,Arizona,295962.63172586274,248.21001351222313,34.25039740197134,5158846.0,248.1131605767231,33.36453834401722,5754775.0,248.10312853690493,33.3650637755819,6403270.0,248.0946580681691,33.36395987450613,7106293.0,248.08781266863105,33.36235969574208,7874542.0,248.0836001385416,33.359531156358834
USA,Missouri,180821.32083653446,266.75107846442523,38.33733187554212,5629009.0,267.01049176057205,38.43180796349445,5824029.0,266.9965736753112,38.424985642249524,5997190.0,266.98557557094955,38.41882078918804,6150190.0,266.97475115289643,38.412300524939226,6282193.0,266.9637337130528,38.40547958683445
USA,Alaska,1507563.7903218635,206.8959435816528,63.42718755588776,630328.0,210.86343192003784,61.180698459630975,670474.0,210.79600688316572,61.240411534669995,711724.0,210.73659908070388,61.29771572195146,752385.0,210.6830294122047,61.353767850884964,792996.0,210.63241982603947,61.40784842578219
USA,North Dakota,183005.6820634502,259.25530356461604,47.42410182851908,644006.0,260.35196504323017,47.3688869419459,658064.0,260.35931762373383,47.356073923076394,673180.0,260.3730511838317,47.34323429665766,687184.0,260.3879024430396,47.330418374998665,695355.0,260.4021476677018,47.316917660329906
USA,Arkansas,138053.16568624473,267.03686789396045,34.88225074685187,2687322.0,266.9581862814509,35.077156235360874,2804199.0,266.9282568842194,35.10779762128144,2919754.0,266.8981347975123,35.138170144901515,3035034.0,266.8674667128823,35.16908393226489,3145359.0,266.83590422204054,35.20111017397253
USA,District of Columbia,177.25287669089005,-77.01609759135059,38.904743642166565,575130.0,-77.01433358424151,38.91026944804448,590425.0,-77.0143387476008,38.91027140400581,603445.0,-77.01433675926066,38.91026108855074,610860.0,-77.01433511968553,38.9102698027627,614494.0,-77.01433620351727,38.91027041248722
USA,Kansas,213425.56558335747,261.2899646922617,38.469279600316526,2699269.0,263.1700823212942,38.44972110859861,2778464.0,263.21245208917463,38.45539466880558,2856299.0,263.2521785308792,38.46157311945098,2923651.0,263.2896932093686,38.467618873934796,2967818.0,263.3312145126594,38.47435251546517
USA,Rhode Island,3070.3405244262212,-71.53530003181123,41.67284610532005,1054758.0,-71.44838023293285,41.75336441272385,1055812.0,-71.44890640895369,41.75322269298782,1054361.0,-71.44935836578765,41.75343451398198,1045391.0,-71.44980449270847,41.7536633278046,1026910.0,-71.45035432676127,41.75352947091645
USA,Tennessee,109385.07107648945,-85.76810959033585,35.838946868984976,5723023.0,-85.67113582932853,35.79466748263097,6045560.0,-85.66921876766874,35.80057498384407,6356996.0,-85.66920822723851,35.80664884702368,6651517.0,-85.67038614523184,35.812902453384666,6932469.0,-85.67241298892876,35.81932564788394
USA,Mississippi,123840.35966399917,-88.26285341770051,32.724220693689674,2859203.0,-88.13612469589026,32.556696295384654,2917123.0,-88.12334248529343,32.56603493335269,2971421.0,-88.11021633638494,32.57958548805662,3021194.0,-88.09662570769324,32.597474286592075,3063027.0,-88.08192854612183,32.61961423062376
USA,Nevada,286762.0177327299,243.24268180186573,39.29812525410857,2008984.0,243.54993924840525,37.14756420755999,2335890.0,243.61670352971555,37.08604738480708,2706795.0,243.68097403447496,37.02723942636395,3116556.0,243.7408474152383,36.97353564046871,3571033.0,243.79778039745108,36.92387199203893
USA,North Carolina,128177.5325740359,-79.17533123844456,35.536069828861116,8092130.0,-79.53118582069357,35.55202942047843,8805858.0,-79.5275375447614,35.54681756804842,9553968.0,-79.52281981249668,35.54139343416685,10323352.0,-79.51778459860115,35.535762897398044,11119883.0,-79.51310919633838,35.529833378423966
USA,Maine,84131.60852970106,-69.17997085214391,45.355843970952506,1282120.0,-69.6772093204737,44.306469823295835,1310544.0,-69.68444686639782,44.30008340493934,1330274.0,-69.69058527627439,44.29440942447044,1341362.0,-69.69612539027356,44.28935719371119,1344134.0,-69.70290565951032,44.28349144128407
USA,Connecticut,12884.839772711006,-72.71607490955095,41.62070763628273,3424382.0,-72.86624106506802,41.49495749647161,3512386.0,-72.86413485756053,41.49573128750096,3582200.0,-72.86206384343262,41.49647161085724,3622483.0,-72.85979502946552,41.49730416088237,3641005.0,-72.85757803502455,41.49813097740329
USA,Idaho,216478.1079569906,245.22689322768974,44.3136028380045,1301601.0,244.69060879351542,44.21776929191672,1432527.0,244.67162215015412,44.205725976104816,1569450.0,244.6525304360563,44.19409779909695,1715183.0,244.63398850378965,44.18211756177665,1868609.0,244.61597751986596,44.17015306800054
USA,South Carolina,80612.02134828421,-80.79574941372576,33.90122379611447,4033979.0,-80.923445538448,34.03196240930208,4331915.0,-80.91260906353953,34.02704604346805,4633173.0,-80.90042807315501,34.02161868962227,4933940.0,-80.88693547996509,34.01588447038413,5232367.0,-80.8721360449133,34.009861373911775
USA,Wisconsin,169652.0641740724,-87.7588378166061,44.60514219237165,5396096.0,-87.92402389496328,43.720624691929984,5557811.0,-87.92918056776612,43.71764822937226,5693933.0,-87.93323906313864,43.71448190368929,5800852.0,-87.93675774398535,43.71258117579405,5871258.0,-87.94044258631497,43.71084679217334
USA,Florida,151534.1584155017,-82.01127029792863,28.58223601125386,16067736.0,-81.31425481453901,27.781905458192895,17422213.0,-81.32033133394278,27.79649175350783,18838706.0,-81.32711624747006,27.811765622422627,20271358.0,-81.33498348780817,27.828438441068638,21725691.0,-81.34326429570312,27.846357075819217
USA,Indiana,94439.40885570191,-85.95092503077285,39.89447837711622,6114955.0,-85.93350829945423,40.153700912339815,6312614.0,-85.93526375723273,40.14744518912072,6492516.0,-85.93762055575891,40.14075336364099,6652644.0,-85.94037765212173,40.13393143935364,6784797.0,-85.9434604157451,40.126611324913505
USA,Nebraska,200494.48769023642,259.8975716102632,41.51102648452064,1718056.0,262.3204389372896,41.18120654780048,1773087.0,262.37474790606575,41.17646119934971,1827915.0,262.42327964136786,41.17227165794627,1878941.0,262.4697046690024,41.16836291186077,1913426.0,262.52257262360513,41.16394367742694
USA,Kentucky,104838.42526466561,-84.92965685686929,37.519554640767346,4063720.0,-84.95357582133438,37.80530917827188,4210944.0,-84.96362731804084,37.81351170037739,4347381.0,-84.97240346907152,37.821935813062254,4463750.0,-84.98091824532575,37.830175656577936,4560196.0,-84.98841789084882,37.83920022029664
USA,Illinois,150168.5202663163,-87.775714408198,40.082109860088025,12480951.0,-87.59287528512905,41.269311867886984,12677959.0,-87.60030076862881,41.2728242097551,12848918.0,-87.60841686946704,41.27678926191884,12982681.0,-87.6175308393074,41.28115367375092,13060033.0,-87.62839161524377,41.28795245172391
USA,Georgia,152951.21218129483,-83.1979985563534,32.625581627333844,8231403.0,-83.67472953861241,33.32759660794873,8941071.0,-83.68406853141133,33.349221463720376,9708952.0,-83.69494575528091,33.3718252794426,10515313.0,-83.70654283338746,33.394193066752706,11379585.0,-83.71966613617354,33.417528099158645
USA,Montana,380656.0680878034,250.04294557883804,46.994087664192115,907183.0,248.56756552954246,46.80390477592014,949473.0,248.52593820420736,46.79013653892496,990294.0,248.49246799487273,46.777532857077695,1030030.0,248.46246681658602,46.76482380330188,1063856.0,248.42647818915623,46.75131466708701
USA,Vermont,24911.983776217454,-72.63861169198303,44.06505258324475,612182.0,-72.78976141040883,44.07850595851166,621198.0,-72.79103434642532,44.085920726822565,626659.0,-72.79259809630432,44.091937687964496,628248.0,-72.79388230946516,44.09761917448284,625704.0,-72.79509848809809,44.10455586754232
USA,Colorado,269982.80403562915,254.25616951624204,38.97026176136101,4326228.0,254.74241293971437,39.49798879127791,4675525.0,254.7380419257094,39.50413431167256,5037595.0,254.7353082115577,39.51010937113019,5409768.0,254.73358588854535,39.51599813566519,5789836.0,254.73226895957208,39.52187337876771
USA,Louisiana,125672.83309599748,267.40086927841793,31.003376181284967,4493329.0,267.77876754004143,30.69475093655531,4515132.0,267.7653766437311,30.70800783273395,4540425.0,267.75732606364875,30.71800351651824,4563402.0,267.7535211723822,30.725260249865872,4576296.0,267.75433340947205,30.72943285479145
USA,Texas,692818.6942226702,259.932225694148,31.38987731458153,20962502.0,261.89427670409384,30.92795042412928,22998006.0,261.9143797618384,30.90574784395514,25192809.0,261.93651382623045,30.884906987824188,27512519.0,261.95978076547755,30.86686094976855,29977347.0,261.98612824505176,30.85092948788869
USA,Hawaii,16739.993562976935,203.65441878819408,20.239463777197322,1217863.0,202.46702992012342,21.14025157702616,1291674.0,202.4883874184185,21.127222321869567,1364242.0,202.50984947719112,21.114185399458737,1428250.0,202.53280094265506,21.100164365801593,1487142.0,202.5562387036029,21.085841831707697
USA,New Mexico,315686.4181274109,253.69702282654345,34.381278744855585,1828528.0,253.52282859506727,34.61033628718957,1945962.0,253.52249576690764,34.61547392762653,2061958.0,253.51971043882372,34.62217373892294,2176206.0,253.51676178388024,34.628869137940214,2285746.0,253.51366167132022,34.63501326615002
USA,New York,137229.22660552282,-75.52275056987153,42.95696726874909,19074339.0,-74.49686806175563,41.498909761214634,19293247.0,-74.48600588145847,41.49564785184238,19424560.0,-74.47546768215108,41.4920203623931,19392585.0,-74.46632731138672,41.490029982065124,19230324.0,-74.45586221963629,41.48705486608631
USA,Massachusetts,21048.77501874784,-71.78241463822894,42.25428326482805,6383244.0,-71.35091663220722,42.27108367186036,6493280.0,-71.35055501276743,42.27142371528571,6561225.0,-71.3502505409085,42.271716404400806,6577976.0,-71.3503783414909,42.271912601909456,6561883.0,-71.34978182731864,42.272298221032344
USA,New Hampshire,24033.294930084823,-71.5553881833082,43.67520668841631,1243154.0,-71.45143547463228,43.15230303481254,1284719.0,-71.45086000459207,43.152958343090894,1318701.0,-71.4499523513038,43.153472747376235,1343843.0,-71.44918637117709,43.154330224400795,1361167.0,-71.44853685072252,43.1550620932724
USA,California,410766.49600478966,240.27226436568827,37.11319589150275,34054393.0,240.48519139252377,35.433353923328696,35723393.0,240.49966151243115,35.435748203998216,37348075.0,240.51640981690701,35.43650355333418,38774470.0,240.53418601206712,35.43750121349396,40080172.0,240.55419980543508,35.43707880240931
USA,Minnesota,225095.49765565514,264.95434004457843,46.28123182120899,4944345.0,266.0497927413681,45.20284190978895,5133567.0,266.0630651152227,45.199481311999264,5311455.0,266.0749642589218,45.195795676340886,5470809.0,266.08520288640506,45.192438508587394,5606366.0,266.0975621966284,45.18872283332511
USA,Alabama,134237.58679649414,-86.40385823258939,32.76600925945976,4469067.0,-86.31354823007159,32.99016775534098,4632887.0,-86.30688979236318,32.993951209656096,4786764.0,-86.30122337056595,32.998161169327155,4926334.0,-86.29584269208,33.002225139095636,5045139.0,-86.2902539516178,33.005221306112645
USA,Utah,220178.7248839034,248.21713550858416,39.28356144494853,2245285.0,248.04747878414895,40.43051775054311,2497525.0,248.03710840701,40.413009736662524,2768907.0,248.02613036976848,40.393794004380034,3054227.0,248.01448128161164,40.37215085902106,3354212.0,248.00228535455022,40.34823241273677
USA,Iowa,145847.71060188257,266.00023348589724,42.05875396459045,2937974.0,266.41220780206544,41.95705806602646,2996478.0,266.4264854251188,41.94961812727739,3049502.0,266.4370833865286,41.94261793138262,3093644.0,266.44652780914095,41.93551340442577,3113964.0,266.45863047492236,41.92724010137707
USA,New Jersey,20079.190751666392,-74.64129644222724,40.17992052490252,8460513.0,-74.41377675893797,40.436370877178405,8659341.0,-74.41500158857716,40.43344689563521,8810174.0,-74.41632964712846,40.4303274799881,8896439.0,-74.41792145567868,40.4267588212846,8933442.0,-74.41906887215517,40.423635376158956
USA,Pennsylvania,119395.86907135235,-77.70130183260628,40.88635329857427,12341577.0,-76.91422752626968,40.461355870325164,12554903.0,-76.88310455022742,40.45781850581768,12721418.0,-76.85258359484617,40.45445820458861,12815530.0,-76.82342923406316,40.45154292922108,12814601.0,-76.79344548108357,40.44811444386565
USA,Virginia,103992.50158363629,-78.68793977354267,37.506701492248624,7117756.0,-77.70287610439443,37.74585121234113,7558255.0,-77.69329811318805,37.77472635343111,8018093.0,-77.68278738183297,37.80590886191002,8481514.0,-77.67285144778526,37.83895851331207,8966479.0,-77.66204523968683,37.87487965894036
USA,Michigan,250499.24611868567,-84.6784978493305,44.795417716609975,9992178.0,-83.9225271729825,42.85867307050207,9962462.0,-83.93659666005618,42.86273720505377,9897749.0,-83.94997216619025,42.86644043029371,9780438.0,-83.96322208877034,42.87030818643733,9592652.0,-83.97634643975853,42.87369912091234
USA,Oklahoma,181432.41679607157,262.183615174857,35.567845398594464,3471604.0,263.01187689819005,35.59669676716083,3621659.0,263.0136973222107,35.596186761437004,3755812.0,263.0142018719011,35.59587493314183,3877177.0,263.01379125499284,35.59537378377442,3981040.0,263.0133705064985,35.594700625602876
USA,Oregon,251379.74414493356,239.3352656930088,43.90402839632109,3440945.0,237.37151714571286,44.72353766952174,3644421.0,237.3692454010037,44.72872004464988,3837645.0,237.36804281302895,44.7342033619661,4015669.0,237.36801259184224,44.73904595129655,4177752.0,237.3681214321736,44.74337201407069
