ISO3,NAME1,AREA,LON,LAT,UN_2000_E,LON,LAT,UN_2005_E,LON,LAT,UN_2010_E,LON,LAT,UN_2015_E,LON,LAT,UN_2020_E,LON,LAT
CHN,HuNan,212813.8010974619,111.7141511270861,27.58458319132338,64466280.0,112.00508058546976,27.669623405225902,65399809.0,112.01948386416863,27.673552497983714,66102894.0,112.03414881557973,27.677588561032984,66561640.0,112.04906810221969,27.681738417380327,66387108.0,112.06423206778331,27.686007251542062
CHN,BeiJingShi,16412.468330850756,116.40807909467776,40.18246910228132,13824847.0,116.39768054199054,39.9590606737558,16551618.0,116.39768055090676,39.959060554757095,19732415.0,116.39768037143655,39.959060424279755,23422586.0,116.39768042744873,39.95906051899753,27523067.0,116.39768049543925,39.95906053988961
CHN,NingXiaHuiZuZiZhiQu,50943.12702498699,106.162645713079,37.23903510928236,5589760.0,106.1461396155485,37.476912679006844,5945953.0,106.14680818209078,37.54412141684407,6339921.0,106.14782050304534,37.60780607354543,6773841.0,106.14918796645361,37.66773402586329,7208640.0,106.1509140286034,37.72378662287178
CHN,ShanDong,155842.66031873302,118.13601046874919,36.33696397664408,91666934.0,117.99732137039766,36.20585563901507,94171876.0,118.00868739724972,36.213813325682416,96379042.0,118.02027768755663,36.22175086420271,98255456.0,118.03208968932444,36.22966451153056,99206377.0,118.04412369325807,36.23754932290462
CHN,YunNan,384549.1835641699,101.49707852235585,24.937313212628812,43158184.0,102.17474450596046,25.013492654666678,44766182.0,102.18503992636975,25.020955935286086,46248122.0,102.195225234283,25.028438878980506,47582922.0,102.20529917541782,25.035940158324852,48474500.0,102.21526087869596,25.0434589559141
CHN,SiChuan,446360.38288063224,102.76447099899248,30.4871343386407,83899770.0,104.92391316426836,30.2682298585811,82357426.0,104.87475994811368,30.25763661719124,80909743.0,104.8233164020372,30.2479610898328,79558717.0,104.76982364959613,30.239399842910505,77861826.0,104.71459125927738,30.232137192934907
CHN,HeBei,187874.8591497123,116.10106362884895,39.49060849095367,67940805.0,115.91430187895759,38.55069827579352,70228137.0,115.91304858180216,38.54612216435307,72294015.0,115.91179518066188,38.541621601796386,74107183.0,115.91054346310507,38.53719994139449,75210482.0,115.90929455092362,38.532857200383894
CHN,GuiZhou,176673.45462869815,106.86857519200737,26.80115640003194,35911803.0,106.61212154312285,26.865301159892283,35482243.0,106.58631651844287,26.859715167445763,34961252.0,106.5610026821735,26.853990346774697,34351144.0,106.53627493435138,26.848144185154762,33464714.0,106.51222268116196,26.842193263058665
CHN,JiangXi,167691.77593432527,115.70927398419738,27.588169202152315,40962904.0,115.78987442439109,27.82737622425582,42945848.0,115.7900971315862,27.822321425304416,44840577.0,115.7902949567567,27.817324248949184,46622719.0,115.79046540586873,27.81238704053686,47994707.0,115.79061105208453,27.807511282747605
CHN,HeiLongJiang,405488.3168892484,128.22701560254038,47.25764873960053,36920325.0,127.55733138718573,46.532380479096396,37787040.0,127.54559847436077,46.51509671761541,38548498.0,127.5341766850975,46.49789214974739,39193087.0,127.52306047329739,46.480792798552,39485296.0,127.51224054869954,46.463821717244265
CHN,QingHai,432072.0109521774,97.28356136716687,35.503303645982825,4913824.0,101.02037803919806,36.235605689989455,5276095.0,100.92203015941284,36.21217018479803,5661170.0,100.81749058645524,36.18736242178991,6069982.0,100.70677492140871,36.16124917506009,6466708.0,100.58997465961379,36.13393027216736
CHN,ShanXi,156699.6916384597,112.2744095087999,37.52973816992486,33083022.0,112.25038687303045,37.22127287435588,34538281.0,112.25273167549341,37.23467510043452,35930703.0,112.25524263804078,37.248461694728114,37245102.0,112.25792201744244,37.262630991903,38248828.0,112.2607733573208,37.277172695212215
CHN,NeiMengGuZiZhiQu,903438.5564297641,113.44085663867095,43.302407241558925,23762767.0,115.63077721117914,42.7965451759964,24314627.0,115.45491281428683,42.70864344429612,24857521.0,115.26787797267457,42.615940605202404,25393027.0,115.0700606499319,42.5185763681225,25776276.0,114.86205660664591,42.41676542380291
CHN,LiaoNing,145917.15042331236,122.59973027884212,41.28067967811651,42612425.0,122.51832420064814,41.09259821526223,43376626.0,122.52294430326849,41.077918237979674,44014073.0,122.52750862752136,41.06337469206635,44514181.0,122.53200531843342,41.048983951497675,44613451.0,122.53642617152342,41.03476083237569
CHN,GuangXiZhuangZuZiZhiQu,237576.17611660672,108.78318855887397,23.813016524028654,44680772.0,109.23334791456914,23.495973982009442,45572320.0,109.23587405641143,23.484294004813727,46305452.0,109.23809072018204,23.472617640471423,46867071.0,109.23999772092345,23.46094451535666,46978492.0,109.24160084769822,23.44927669734657
CHN,HeNan,165944.17275435536,113.61453854738446,33.860965263453146,92955849.0,113.94158389495676,34.09441647086898,93884677.0,113.9174497384236,34.109710871721404,94605469.0,113.89356900971984,34.125136472213896,95112769.0,113.86999730685609,34.14069796755067,94863267.0,113.84679330214249,34.15640036397174
CHN,ZheJiang,103314.9075757258,120.08803672009888,29.168153708359124,46977118.0,120.53090743944496,29.3717167071298,50792918.0,120.54170087013087,29.38326961373527,54760037.0,120.55180217964661,29.394648322820483,58857671.0,120.56124788085772,29.40586489241457,62703652.0,120.57007510469806,29.416930211568296
CHN,ChongQingShi,82745.45215881622,107.86420976356139,30.04499924072432,31087645.0,107.21757649876066,29.8882181602781,30101180.0,107.21757655152946,29.88821776286786,29022749.0,107.21757627469923,29.888217767735604,27861743.0,107.21757712088869,29.88821806392711,26478025.0,107.21757577420699,29.888217707666875
CHN,NA,1933804.8605233282,91.79120340141456,38.85754822211738,0.0,0.0,0.0,0.0,0.0,0.0,0.0,0.0,0.0,0.0,0.0,0.0,0.0,0.0,0.0
CHN,XiZangZiZhiQu,765362.0779127502,89.16201391018893,30.80553874630499,2665621.0,91.89864840165856,30.064204679132455,2842300.0,91.89683488134611,30.0833690231938,3020541.0,91.89462432447611,30.102661955745457,3198928.0,91.89198703594252,30.122085221851066,3356750.0,91.8889375015589,30.14160536238619
CHN,FuJian,122540.43451820465,117.98293565770115,26.067197637957204,34740379.0,118.39719394856141,25.546161149432024,35886636.0,118.40163749114085,25.51368859480829,37120031.0,118.40461502127684,25.478510560273435,38478782.0,118.40578307041777,25.440203201206614,39785467.0,118.40478733595816,25.39838966005617
CHN,HaiNan,34261.06553170296,109.74596025876968,19.192079215254886,7724839.0,109.87900239636761,19.34367006488221,8214699.0,109.88681000388873,19.35036079002361,8724569.0,109.89502343716687,19.35739856737323,9254727.0,109.90360974949388,19.364756528048318,9749929.0,109.91253101851794,19.372401442728957
CHN,GanSu,343420.59069473593,101.82963006040653,37.319611809445604,25640384.0,104.31518160605091,35.90790787640177,25725831.0,104.27910373086966,35.9173744998115,25731802.0,104.24262628729728,35.92742855755604,25656162.0,104.20577675840146,35.93806159219775,25353311.0,104.16857656679984,35.949272120764796
CHN,HuBei,186603.63941534984,112.27656928514483,30.962362101612886,60630060.0,113.09077935852328,30.792852075190844,59142131.0,113.10535882426765,30.79689746347002,57588066.0,113.12204044366615,30.800412025819213,55976044.0,113.14088203635286,30.8033473627455,54007000.0,113.16192369288903,30.80565717167081
CHN,TianJin,11726.881139146855,117.33179552223334,39.30669697338813,10034282.0,117.2949279218979,39.19969614387168,11453383.0,117.29492809464891,39.19969612708643,13017898.0,117.29492791429001,39.19969617476631,14732008.0,117.29492791282276,39.19969627119857,16504083.0,117.29492789726152,39.19969620470049
CHN,GuangDong,178604.00342211218,113.39840196830244,23.3218676758568,88230697.0,113.62360700085108,22.956792562851277,96319344.0,113.62973407249486,22.95329250891412,104958996.0,113.63633820260173,22.949894412393576,114166046.0,113.64342532503218,22.946574068893742,123253462.0,113.65099650352695,22.94330727288366
CHN,Shaanxi,205770.02302110413,108.8491960421923,35.128101750110226,36243622.0,108.83301030879537,34.632325995416956,36956239.0,108.83250297335928,34.630045512844326,37555854.0,108.83214427382607,34.627584097977035,38033588.0,108.83193703164766,34.62494010021234,38164479.0,108.83188174751008,34.62210928276616
CHN,XinJiangWeiWuErZiZhiQu,756971.3269661448,84.22501742330867,41.79287070696699,18807306.0,82.77315947819346,41.89124235218989,20338794.0,82.81938861558132,41.89766976312348,21949347.0,82.87045124816134,41.9086788338487,23637059.0,82.926333192161,41.92433872949098,25255370.0,82.98698996741855,41.944688634535936
CHN,AnHui,140685.78427672366,117.23491886028724,31.800530346656807,60556396.0,117.05997117022487,32.22604287092282,60302209.0,117.0661183691662,32.220109863401746,59864656.0,117.07218514396662,32.21430893305759,59244716.0,117.07816086127275,32.20865986591414,58114568.0,117.08403222716294,32.203183217675395
CHN,JiLin,179068.00239106335,126.11555589317244,43.672149631631555,27307171.0,125.74230766168428,43.74261317349676,27516637.0,125.73969300106172,43.74974400403201,27620865.0,125.73704980825984,43.75683160682871,27615640.0,125.73438041808974,43.763873602590785,27342717.0,125.73169262581756,43.770866513476584
CHN,ShangHaiShi,6804.1098620073835,121.44161692648277,31.198927696167225,16716861.0,121.43843316721302,31.196517508755267,19718236.0,121.43843326225705,31.196517444716267,23160092.0,121.4384332405229,31.196517576662718,27084922.0,121.43843321185116,31.196517603878426,31356140.0,121.4384332201427,31.196517560500926
CHN,JiangSu,102038.39552088903,119.47061400924487,32.953900213104696,76262571.0,119.53467161112138,32.79581940728116,77691212.0,119.54990214153851,32.74354248244485,79142388.0,119.56526264771743,32.68980500545845,80619585.0,119.58057264820927,32.635000725326876,81659525.0,119.59564241018386,32.57956658561964
RUS,Nizhegorodskaja,76623.21858799378,44.58217647046504,56.2769385770303,3593380.0,43.93944444543549,56.12280641959353,3427879.0,43.9394446669919,56.122805915163866,3317586.0,43.93944472326579,56.12280636569814,3223112.0,43.93944445155156,56.12280581908162,3107820.0,43.9394441753548,56.1228058634325
RUS,Arhangel'skaja,578684.0057578607,48.06587301178685,66.34716794392901,1370539.0,42.166874235918236,63.532481796836606,1289137.0,42.16687233151832,63.53248640511354,1230220.0,42.16686623557561,63.53247876325902,1178479.0,42.16687028460652,63.53248057502646,1120438.0,42.16686493634575,63.5324784452926
RUS,Karachaevo-Cherkesskaja,14317.997796546388,41.752780791646565,43.768277335712654,432034.0,41.94286219006219,43.99101924888295,451574.0,41.9428605300096,43.991019178770486,478867.0,41.942861005019395,43.991018889582,509751.0,41.94286122227616,43.99101863254775,538555.0,41.94286123764219,43.99101955614187
RUS,Novgorodskaja,54890.894176910006,32.47285670657852,58.29489469044176,713046.0,32.11372213243668,58.41657235623566,668283.0,32.113724340419594,58.41657156359589,635449.0,32.11372212074712,58.41657338035708,606538.0,32.11372227002167,58.416573010411255,574594.0,32.11372925993363,58.41657384551137
RUS,Habarovskij,783329.5960175785,137.00460675195646,54.1883568385983,1466394.0,135.99995487003252,49.40548714565766,1395160.0,135.9999504702637,49.40548375553793,1346708.0,135.999949658128,49.40548395068309,1304905.0,135.99994818102562,49.40548659362143,1254906.0,135.99994941452277,49.40548182480844
RUS,Rjazanskaja,39629.86622957367,40.62124162537129,54.32596904979972,1251919.0,40.12140102240901,54.45716672791685,1194631.0,40.12140197305362,54.45716683516973,1156547.0,40.1214028460594,54.457168157261506,1123964.0,40.121400870700114,54.45716592444304,1084094.0,40.121400011970415,54.45716662459275
RUS,Smolenskaja,49647.775835307584,32.991329006340194,54.94463620786691,1070358.0,32.75954016387218,54.85951631749692,1020755.0,32.75953735342995,54.8595151708095,987618.0,32.75953948980225,54.85951542025056,959210.0,32.75953725625749,54.85951584854694,924620.0,32.75954064530547,54.85951686902327
RUS,Tyva,168217.59570885092,94.75915484218191,51.563455968975276,306091.0,93.564939621154,51.451696283518785,305119.0,93.56492811691616,51.45170177530028,308579.0,93.56491968559656,51.45169915717815,313273.0,93.5649293252514,51.4516917290457,315649.0,93.56492389767699,51.45169374097332
RUS,Severnaja Osetija - Alanija,8375.28102052086,44.281801245766424,43.10658552225288,712351.0,44.53346502552989,43.075325622269574,708283.0,44.533464830120735,43.07532613416427,714485.0,44.53346491827252,43.07532631060261,723498.0,44.533464473557224,43.07532584044404,727123.0,44.53346487594821,43.075326519789684
RUS,Tul'skaja,25662.08552560033,37.576018638386735,53.881802296907196,1714300.0,37.746082695387166,54.03904053281643,1622104.0,37.74608273522375,54.039040292654526,1557207.0,37.746082567017744,54.039039888716566,1500615.0,37.7460818443099,54.03904010646394,1435224.0,37.74608146314172,54.03903945721837
RUS,Tomskaja,313581.451047957,82.23029721930114,58.44798810165573,1049755.0,84.36400158446169,57.02880625143938,1042126.0,84.36399997753793,57.02880641746606,1049604.0,84.36400384323119,57.02880579174234,1061179.0,84.36399313485855,57.028806040269245,1064828.0,84.36399148695546,57.028808644336785
RUS,Kaluzhskaja,29782.749809725094,35.43874666048935,54.36586057239319,1053531.0,35.96251049312826,54.5808911369271,1025663.0,35.962508956717286,54.58089237298834,1013063.0,35.962507693041,54.58089109566245,1004445.0,35.96250760392333,54.580891081669364,988420.0,35.96250658093902,54.58089197906717
RUS,Cheljabinskaja,88469.31867706437,60.38936713708422,54.406572607267904,3649938.0,60.53537778450789,54.77011022983558,3540110.0,60.53537761608212,54.77010974816701,3483555.0,60.53537848279599,54.770110624901825,3441008.0,60.535377991152934,54.77011010206663,3373460.0,60.535378774941165,54.770110786755744
RUS,Adygeja,7838.56386679192,39.99720976096572,44.59402693756142,450645.0,39.840533648651835,44.736451687795494,442550.0,39.840536318221176,44.73645148874085,440925.0,39.840534267788904,44.736451808066064,440982.0,39.84053528509602,44.73645086709398,437734.0,39.84053458357708,44.736452499333254
RUS,Samarskaja,53434.7179777875,50.45539289057282,53.263072919771666,3258402.0,49.95938148237886,53.32301991712366,3216985.0,49.95938122480089,53.32301975296927,3222319.0,49.95938073815981,53.32301967743471,3239997.0,49.959382124259264,53.32302022326754,3233317.0,49.95938033514658,53.32301993419119
RUS,Kalmykija,70992.20779812927,45.280547594458575,46.43452263374128,294285.0,44.54742462054594,46.34937651745461,290076.0,44.54741828283883,46.34937178971657,290091.0,44.547413086936245,46.349369257861525,291216.0,44.54741470483297,46.34937788423831,290149.0,44.54741645908511,46.34937259701154
RUS,Bashkortostan,142713.3760933456,56.54430452978096,54.22038990790883,4128332.0,55.94329802776965,54.41143477464481,4074999.0,55.94329755964794,54.411435547021256,4080893.0,55.943297498431164,54.41143488624039,4102407.0,55.94329643931326,54.411434445859555,4093085.0,55.94329795741742,54.411435474231915
RUS,Ivanovskaja,21594.874007162012,41.55236425036766,56.986011874348435,1175624.0,41.31701046843442,57.04205558031841,1110313.0,41.317009407875474,57.042055686939584,1063893.0,41.317010692777124,57.04205580057016,1023309.0,41.31700923715189,57.04205496808082,976882.0,41.31701119644331,57.042054911541854
RUS,Kirovskaja,120228.25338158019,49.82882974762561,58.634999236019915,1553056.0,49.74271066551432,58.34713094431901,1434429.0,49.74270748981421,58.34713236557979,1344144.0,49.74271126917345,58.347131087126286,1264357.0,49.74270733327631,58.34712872740625,1180372.0,49.742702169340276,58.347133173672965
RUS,Evrejskaja ,36324.6543421795,132.27985141581613,48.51441333784869,195438.0,132.70187169749457,48.61122540486498,184615.0,132.7018703324716,48.61122646850853,176930.0,132.70186797033472,48.61122404938438,170214.0,132.70186904535328,48.61122518985274,162522.0,132.70187253210088,48.6112263655717
RUS,Rostovskaja,100432.01206903247,41.32856603382152,47.711711648039405,4453298.0,40.26037309758194,47.49581956671558,4337908.0,40.260372068117334,47.49581951258452,4287008.0,40.26037232695516,47.49582034816483,4252892.0,40.26037330913607,47.49581981125855,4187377.0,40.26037199978773,47.49581998652715
RUS,Saha (Jakutija),3064578.8456284427,129.23475649882784,65.213979636487,950654.0,126.5538322148422,62.10263496965343,948711.0,126.5538120070005,62.10262969915001,960550.0,126.55382016520382,62.102617923082256,976254.0,126.5538340268215,62.10261686782455,984767.0,126.55383057551882,62.10263114268734
RUS,Krasnojarskij,2316200.233667942,95.56433427193528,65.39441898264643,3013182.0,92.76041189991417,56.97056854757349,2901259.0,92.76041305616162,56.970570816799096,2834158.0,92.76041392235925,56.97056629513648,2779182.0,92.76041245268604,56.97056564037861,2704819.0,92.76040922084205,56.9705703564961
RUS,Kostromskaja,60074.17120478732,43.765770925137446,58.44577886231359,757928.0,42.11813453149975,58.026512470518554,706938.0,42.11813793155749,58.02651230814603,668971.0,42.1181278946547,58.02651083758621,635463.0,42.11813379216725,58.02651268311007,599107.0,42.118149365381875,58.02651389819333
RUS,Omskaja,140692.80529737362,73.35387111892554,56.04669761522013,2113574.0,73.37626717806008,55.12333250600848,2031916.0,73.37626584695727,55.1233338327351,1981839.0,73.376264842677,55.12333134081802,1940388.0,73.37626564540683,55.12333385328294,1885537.0,73.3762659219509,55.12333444440709
RUS,Kaliningradskaja,13531.344999022234,21.452733315716134,54.70425469346503,962381.0,20.814760277325227,54.72770623814886,946216.0,20.814759199453665,54.727705671912446,943860.0,20.814759639325054,54.7277059133574,945111.0,20.814761412028346,54.727705190795184,939257.0,20.814760585784203,54.72770579503271
RUS,Sankt-Peterburg,2593.344046655261,30.339322799137715,59.9936299064136,4626043.0,30.32776233204577,59.9258886673149,4721890.0,30.327762400596164,59.92588866741243,4889869.0,30.327762419135215,59.92588857949901,5083169.0,30.327762532286933,59.925888564505776,5244450.0,30.327762306618407,59.92588861026904
RUS,Permskij,160457.05643298174,56.21805802632444,59.03886596720499,2878553.0,56.19490893670701,58.104111650361524,2737287.0,56.19490868565792,58.10411092059795,2640834.0,56.194909075497065,58.10411111176126,2557526.0,56.19490932174152,58.10411135379276,2458241.0,56.19490887066998,58.10411254482457
RUS,Belgorodskaja,26886.25938115223,37.502398247915465,50.67046911179368,1512280.0,37.237319556404806,50.742500609076465,1513005.0,37.23731916065688,50.74249995454404,1535764.0,37.23731931084521,50.74250032281035,1564816.0,37.23731835061112,50.74250023539462,1582455.0,37.237320392935885,50.742500221113694
RUS,Tverskaja,84299.16792226996,34.67175668286249,57.07383916793892,1508374.0,35.376108044545454,57.00979079816761,1419994.0,35.37610794018647,57.00979148284552,1356249.0,35.37610844304505,57.009790387801,1300317.0,35.376103782290464,57.00979094782728,1237329.0,35.376109748635436,57.00979199112486
RUS,Mordovija,26055.776901243764,44.44886739822632,54.35864350934912,906305.0,44.80845254482711,54.249470972889824,864445.0,44.80845247410274,54.24947052628698,836518.0,44.808455806946064,54.24946996317274,812584.0,44.808452691117765,54.24946985326792,783412.0,44.808454789770984,54.249470357315026
RUS,Pskovskaja,54852.4684436485,29.26492277476294,57.207087201431044,787414.0,29.135402243115728,57.217731250848324,723712.0,29.13540284423596,57.21773260759464,674846.0,29.135403520678178,57.2177293552984,631682.0,29.1354008727333,57.217730220701284,586840.0,29.13540546934486,57.217733083572
RUS,Stavropol'skij,66185.4895286377,43.353439128603135,44.944796054469236,2733056.0,42.839128346363275,44.66591715544074,2742566.0,42.83912855169014,44.665917110583095,2792163.0,42.83912813383652,44.66591736661581,2853517.0,42.83912770736508,44.66591678298175,2894329.0,42.83912799461337,44.66591703590135
RUS,Karelija,176733.72302076136,33.14298225619551,63.34124003426884,738567.0,33.62976842579798,62.412499201544684,685182.0,33.62976308231192,62.41249790554749,644906.0,33.62976564044492,62.41249460437549,609318.0,33.629763430145765,62.41249818838295,571374.0,33.62975754222853,62.41250306568802
RUS,Ingushetija,3179.4543880932565,44.94318379506371,43.1226238690121,483955.0,44.917355720210935,43.21967771178059,444069.0,44.917355612471404,43.2196775761776,413399.0,44.91735556276938,43.219677510753314,386319.0,44.91735538474006,43.219678610431004,358302.0,44.91735513488959,43.2196788725682
RUS,Murmanskaja,142555.86649964037,34.66675342392156,67.76859459647616,922177.0,32.89445620530357,68.46816786114579,851182.0,32.894460602060555,68.46816722716041,797087.0,32.894456989685864,68.46816786290908,749286.0,32.89445647820009,68.46816828856028,699059.0,32.89445275078836,68.46816739693513
RUS,Chukotskij,716063.2891689067,161.5370275424384,66.39151213856496,54893.0,171.10793740513807,66.06937462294368,52341.0,171.10784923956453,66.06938722207944,50633.0,171.1078043460313,66.06936696517538,49169.0,171.1081300082506,66.06939083434094,47386.0,171.1077972153217,66.06937540825352
RUS,Moskva,1345.162487946785,37.5419647187352,55.71098769132035,10159300.0,37.60252486540805,55.742130397148095,10744035.0,37.602524769983916,55.742130428262904,11527782.0,37.602524769520286,55.74213044078206,12415976.0,37.60252479233124,55.74213044011255,13272219.0,37.60252472524909,55.74213047207298
RUS,Jaroslavskaja,34559.084945740826,39.16460860725536,57.90041581642293,1397615.0,39.470155111344,57.665738976141114,1325370.0,39.47015724361522,57.66573847146382,1275155.0,39.470155484857436,57.66573809664492,1231528.0,39.47015683120415,57.66573932925739,1180467.0,39.47015627968784,57.66573899570738
RUS,Lipeckaja,24023.453296198866,39.149019590787546,52.63881244727379,1228452.0,39.340788257532274,52.60894106653226,1193283.0,39.34078900579089,52.60894200477499,1175990.0,39.34078795036886,52.6089415729239,1163379.0,39.34078911754268,52.608942337004535,1142261.0,39.34078832264072,52.6089420041295
RUS,Astrahanskaja,51436.176013473654,47.28507811166991,47.027255665787266,1007974.0,47.76264483867043,46.60825623675004,1002816.0,47.762644194248686,46.60825797573385,1012206.0,47.7626451846063,46.60825689644852,1025587.0,47.762644540239236,46.6082569929009,1031343.0,47.76264530012948,46.608256318671145
RUS,Magadanskaja,460827.35062520177,153.8373844071856,62.603319648762984,190526.0,151.03687579821997,60.52341180951337,171887.0,151.0369181694665,60.52343736308985,157328.0,151.03693737632614,60.52345356099297,144551.0,151.03694421557597,60.52344424104798,131815.0,151.03687729562108,60.52341981959455
RUS,Kurganskaja,71445.3655819207,64.82001332753643,55.43843577934173,1052750.0,64.81925989415578,55.50429339389898,973186.0,64.81926278131705,55.504291402069704,912730.0,64.81926261051247,55.50429221983665,859301.0,64.81926563341547,55.504290783011406,802924.0,64.81926447851612,55.50429154851417
RUS,Zabajkal'skij,431144.21056311246,115.99838408559725,52.68247131951427,1172261.0,114.81550915334165,51.567720295935246,1132211.0,114.81549553427938,51.567717475154296,1109444.0,114.81550710580589,51.56772017297774,1091292.0,114.81550905257875,51.5677260343621,1065376.0,114.81550345583288,51.56772245656117
RUS,Novosibirskaja,177459.0393685146,79.7918216159492,55.250249659680975,2709339.0,82.14728608271969,54.942839429368455,2671007.0,82.14728417731538,54.94284034238175,2671539.0,82.14728555189663,54.942839518017244,2682283.0,82.14728252695556,54.94284026077115,2672848.0,82.14728997952632,54.942839164441004
RUS,Voronezhskaja,52153.9181600322,40.23467188840034,50.95940101387105,2399048.0,39.77722618654767,51.28419239883995,2352444.0,39.77722665768172,51.284192328510116,2340312.0,39.77722703196232,51.28419159101216,2337139.0,39.77722655808466,51.284191792482616,2316448.0,39.77722768733428,51.284192314220036
RUS,Saratovskaja ,100559.17134316986,46.789958286710934,51.57116323202893,2716717.0,46.27595700497711,51.611161894559785,2601391.0,46.27595748350993,51.61116219001058,2527214.0,46.27595896435646,51.61116136325979,2464540.0,46.275959965754865,51.611162118913114,2385373.0,46.275959639538414,51.611161218789334
RUS,Kemerovskaja,95514.42079754817,87.22600092697927,54.73619166029765,2945555.0,86.65015629940288,54.61293755283476,2835339.0,86.65015578988505,54.61293804260268,2768969.0,86.65015678001197,54.61293779983518,2714484.0,86.65015623113692,54.612936956530305,2641095.0,86.6501567067866,54.61293706335214
RUS,Marij Jel,23331.05763694371,47.93325069544926,56.574630164494515,738934.0,48.08907300883795,56.5397183246474,712970.0,48.08907398272823,56.539718474442985,697930.0,48.0890714454164,56.53971664330157,685819.0,48.08907292061125,56.539717574100194,668857.0,48.089069869479744,56.539717935769204
RUS,Dagestan,50181.69790591425,46.87493573428382,43.0183902206895,2508952.0,47.31762689873224,42.804982166009935,2685542.0,47.31762603864629,42.80498241030251,2916390.0,47.31762629084638,42.80498206223283,3179190.0,47.317626710478876,42.80498275032202,3439659.0,47.31762633584975,42.80498168468655
RUS,Ul'janovskaja ,37163.98112077674,47.93887368994748,53.87921553683695,1411730.0,48.28074348604068,54.130837972479156,1342646.0,48.28074238925243,54.130837341431,1295528.0,48.28074226978352,54.13083895968613,1254840.0,48.28074215705594,54.130839119661196,1206305.0,48.280742985638675,54.13083986055071
RUS,Tambovskaja,34393.89001248811,41.59011527770775,52.67241779012723,1205760.0,41.45064948670572,52.7188941533275,1140412.0,41.45065109520873,52.71889293677528,1094299.0,41.45065076450096,52.718894834139086,1054066.0,41.450650742963546,52.71889619130391,1007687.0,41.45064977498149,52.71889518346306
RUS,Kurskaja,29885.473880128247,36.10782910388279,51.67811546613385,1268575.0,36.008590240146965,51.7340409375054,1188383.0,36.00859290580598,51.734041320603474,1129460.0,36.008589453063344,51.73404012991215,1077560.0,36.00859355783513,51.734041027094364,1020332.0,36.00859038591585,51.734040706891584
RUS,Tjumenskaja,1372894.8215465003,71.98515250062606,63.781494859723985,3245444.0,69.28078291032418,60.58370987890582,3299330.0,69.28078248387192,60.58370964396828,3402926.0,69.28078276525888,60.583707966990474,3523183.0,69.28078279326208,60.58370987301031,3620308.0,69.28078523767716,60.58371144682351
RUS,Primorskij,161739.65059550267,134.69190469731305,45.13820293750017,2109071.0,132.58163502303373,43.70490022296083,2018858.0,132.5816346843278,43.70489995431135,1960630.0,132.58163585346773,43.70489973132539,1911353.0,132.5816358266532,43.704900126986324,1849329.0,132.58163585251123,43.704900492779146
RUS,Altajskij,167462.52874640448,82.60363402082433,52.586091164373826,2666875.0,83.0223093265153,52.80697658256879,2524685.0,83.02231231430245,52.806976621412325,2424862.0,83.02231429781176,52.806977037386254,2337889.0,83.02231039087062,52.80697630140245,2237108.0,83.02231382251166,52.80697717111104
RUS,Brjanskaja,34907.1619365329,33.42118641020492,52.89986542942439,1410788.0,33.70020246340513,53.04464863250941,1334608.0,33.70020142524966,53.044648198911844,1280914.0,33.7002033022371,53.044649400078136,1234081.0,33.700203553297015,53.04464860818619,1180034.0,33.70020425622287,53.04464988711547
RUS,Moskovskaja,45965.27735973996,37.659082524343106,55.66467147341202,6529698.0,37.80315341740814,55.69568065413885,6764673.0,37.803153509279056,55.695680894982914,7110100.0,37.80315283170467,55.69568078463005,7501721.0,37.803153727722865,55.69568035368106,7855491.0,37.80315345352734,55.69568052574827
RUS,Hakasija,61398.26645571635,89.87962354325498,53.361305551832324,551675.0,90.86091062640843,53.571312044369385,538619.0,90.86090857207708,53.57131186773334,533528.0,90.86091346114544,53.571312998268816,530502.0,90.86091167933911,53.571310542510545,523534.0,90.86091072476995,53.57131354922149
RUS,Altaj,92874.5428727661,87.01628434997937,50.71908200505707,202934.0,86.30677495182655,51.27746013223881,203286.0,86.30679201232869,51.27745120809204,206604.0,86.30678831205284,51.27744858723701,210776.0,86.30679615728015,51.27746160150967,213421.0,86.30678747868659,51.27745881311212
RUS,Komi,415349.12949013076,54.48944703350933,63.927932771962055,1054436.0,53.88679655482182,63.43904607792188,968809.0,53.88678913713805,63.439041598215404,903092.0,53.8867832854801,63.43904167237372,845047.0,53.88679568889753,63.43904433281811,784797.0,53.88678973342679,63.43903918658284
RUS,Krasnodarskij,75234.17495146862,39.470220855716434,45.247826377863106,5119946.0,39.27102444269694,45.09842602365577,5141203.0,39.27102349390933,45.09842585567797,5237680.0,39.27102312433815,45.098425719102096,5356359.0,39.27102379731419,45.09842593177622,5436602.0,39.27102434618351,45.098424949166876
RUS,Udmurtskaja ,42035.91124611247,52.79474649902521,57.14909620176205,1588920.0,53.11664562637494,56.98160929415028,1545238.0,53.116645619958945,56.98161056581526,1524632.0,53.11664456773154,56.981608628717204,1510047.0,53.11664573689364,56.98160956685543,1484373.0,53.11664514776467,56.9816102089775
RUS,Kamchatskij ,462134.23897855496,162.29568081721692,58.41911264311914,370047.0,159.05972747883877,53.71884338145863,343107.0,159.0597230601312,53.71884493096517,322759.0,159.05972587810356,53.718854447949425,304777.0,159.05970958749074,53.718821329872185,285635.0,159.05972661992652,53.71882327727646
RUS,Tatarstan,67835.77871094158,50.920227026916066,55.34250924446194,3792105.0,50.69311699291727,55.51578873934865,3765991.0,50.69311877919862,55.51578832935342,3794479.0,50.69311644517091,55.51578892488545,3837801.0,50.69311675125928,55.515788425152145,3852472.0,50.69311682017845,55.51578889899982
RUS,Vologodskaja,145136.31292597385,40.48944699857752,59.9484835485634,1291914.0,39.638989917630326,59.46307568306232,1238711.0,39.63899639963016,59.46307838556096,1204981.0,39.63899673950368,59.46307669618335,1176650.0,39.63899158635385,59.46307661563981,1140360.0,39.63899502633378,59.46307630642771
RUS,Sverdlovskaja,193621.78384068975,61.52694164368239,58.50076980780009,4552194.0,60.66252417752599,57.31002590632344,4395932.0,60.66252426483054,57.31002505469635,4306821.0,60.662524173647164,57.310026714850785,4235642.0,60.66252392482564,57.31002698635799,4134358.0,60.66252325806964,57.31002654732312
RUS,Chuvashskaja,18361.604374781786,47.085788536178654,55.48479428296276,1334918.0,47.22699823454169,55.816816247985194,1284647.0,47.22699846259584,55.816816823485375,1254264.0,47.226997301573086,55.81681557032732,1229272.0,47.2269966293153,55.816816402789385,1195738.0,47.2269975754771,55.81681614294235
RUS,Vladimirskaja,30069.889036847584,40.62382946440416,56.03108273902216,1550742.0,40.60545187731732,56.077622246675524,1487058.0,40.60545355349344,56.07762204537642,1446739.0,40.605450175124105,56.07762232095155,1412898.0,40.60545129151146,56.07762154746311,1369484.0,40.605452920867506,56.0776216256487
RUS,Leningradskaja,78066.59258988248,31.7057197185569,59.95546337621138,1663926.0,30.692491445112275,59.858077805757624,1679792.0,30.692489204671556,59.85807769846522,1720494.0,30.69249058393197,59.858077445907526,1768911.0,30.692492910648834,59.85807790503261,1805043.0,30.69249113635948,59.85807786525776
RUS,Sahalinskaja ,84424.98856232202,143.6951272718717,49.7705055897122,561773.0,142.88446924871315,47.899776450587744,525658.0,142.88446464248423,47.899775208836374,499026.0,142.88446281776876,47.899780756152225,475550.0,142.8844764968998,47.89977734314073,449779.0,142.88447673192601,47.89979230852105
RUS,Kabardino-Balkarskaja,12466.736666491075,43.40791730780583,43.49276106413457,915731.0,43.62146946341635,43.54063797868176,881938.0,43.62146880116015,43.54063788345332,861757.0,43.62146935511884,43.540637749020405,845251.0,43.6214683759307,43.540637713983166,822841.0,43.621469031936286,43.54063821668007
RUS,Orlovskaja,24604.39646603999,36.48481264007633,52.7769598706602,883049.0,36.38327075744108,52.85600689470126,828479.0,36.38327089602194,52.856006442871966,788595.0,36.38327154220028,52.85600737026625,753502.0,36.38327358607147,52.85600732063072,714566.0,36.38327570494486,52.856006361690504
RUS,Amurskaja,362013.3917067733,127.87820771880469,53.30193896281022,925582.0,127.89965741327586,51.25593675428921,871152.0,127.89965728789193,51.255937941728554,831855.0,127.89965640804137,51.25594184168785,797367.0,127.89965613395677,51.255938215818595,758572.0,127.89965267170277,51.25593417422881
RUS,Chechenskaja,15647.422174238058,45.7503948382915,43.308518535841564,1069974.0,45.75600465526443,43.28191668819925,1158072.0,45.756004877560876,43.28191655804363,1271669.0,45.75600398361343,43.281916661226816,1401746.0,45.75600413503864,43.2819166051798,1533520.0,45.756004256944834,43.281917215037836
RUS,Burjatija,350840.2906693545,109.28300783636365,53.44510773144208,987371.0,107.58349910326524,51.97131796889402,973638.0,107.58349079580375,51.971311206220335,974075.0,107.58349675834043,51.971311963293886,978234.0,107.58349465748985,51.97131063655453,975031.0,107.58349029724812,51.97130673304697
RUS,Penzenskaja,43281.31121007622,44.63662037236175,53.177247734930624,1475826.0,44.9317464069839,53.17664876420929,1421507.0,44.931744224467245,53.176648998271084,1389111.0,44.93174662567694,53.17664878951952,1362645.0,44.93174751971674,53.176649041774894,1326642.0,44.93174713963962,53.176649560092606
RUS,Irkutskaja,772911.4548714741,106.02097772205273,56.839710077184314,2631589.0,103.29906005082606,53.909239341128696,2512583.0,103.29906284399554,53.9092410347694,2433879.0,103.2990629448766,53.90924112545774,2366642.0,103.29905722638793,53.9092383651509,2283992.0,103.29906453668615,53.90924345781372
RUS,Volgogradskaja,112607.76013240108,44.14899956038749,49.59334103158255,2732515.0,44.314164250584355,49.160770141189545,2654213.0,44.314164835991505,49.160770176332484,2615673.0,44.31416397339834,49.160769722160396,2587542.0,44.314164878947544,49.16076897990096,2540501.0,44.31416574176334,49.16076907349129
RUS,Orenburgskaja,124260.0605007513,55.68299696515745,51.97343192785092,2226391.0,55.681857348826505,51.90254373617201,2114455.0,55.68185422261458,51.90254514347891,2037363.0,55.68185302725005,51.90254524091472,1970590.0,55.68185752833176,51.90254466165527,1891695.0,55.681857583397196,51.90254399504976
CAN,Nova Scotia / Nouvelle-Ecosse,55634.23079351386,-63.36931189980683,45.13144527775559,939351.0,-63.309854999336984,45.04072510655401,941011.0,-63.32724796317843,45.030105091552606,948593.0,-63.3440999399685,45.01961303100373,951608.0,-63.35957937770585,45.009309012715505,947396.0,-63.375198089385606,44.999163447243255
CAN,Ontario,985716.8395617602,-85.68988070485221,50.139046071434606,11838570.0,-79.6934332341824,44.03193305011949,12413288.0,-79.65020396390268,44.02057369709705,13104174.0,-79.6102839506033,44.01004010029443,13775401.0,-79.57316754878252,44.000338315291195,14387151.0,-79.53933810032994,43.991711090310645
CAN,Manitoba,648206.6377672208,-97.48994000737251,54.615923077657065,1122964.0,-97.68090259319291,50.24757119974156,1172457.0,-97.66345359787796,50.23651006766088,1232016.0,-97.6479257421097,50.22472199417572,1288919.0,-97.63311020177086,50.212519195618334,1339317.0,-97.62005711609694,50.20023033250757
CAN,British Columbia / Colombie-Britannique,946372.0257005433,-124.37143488238817,54.34685715027744,3940888.0,-122.54179626500739,49.69267495460014,4188345.0,-122.5408275504849,49.665477183857746,4475866.0,-122.54023417370817,49.63970441718194,4757078.0,-122.53995914973886,49.61590803594136,5016937.0,-122.5403460868179,49.59384542013757
CAN,Alberta,661751.2427990412,-114.40545558672947,54.847792829533866,3022724.0,-113.74990462922361,52.37419332812542,3327196.0,-113.75254918276806,52.37479276801363,3679214.0,-113.75371983422293,52.37547133229856,4054062.0,-113.75458480295985,52.378255168421546,4429796.0,-113.75328356789187,52.38278227010032
CAN,Prince Edward Island / Ile-du-Prince-Edouard,5891.379769456033,-63.24240327449672,46.38900856478773,135882.0,-63.30726403560042,46.351575742866714,139345.0,-63.30525499260429,46.348862588784925,143565.0,-63.30238671458647,46.34609728302218,147345.0,-63.298753614296736,46.343203064826,150043.0,-63.29581231144069,46.34038802713203
CAN,Nunavut,2084406.2171124017,-90.1329546868785,68.59464912710125,27811.0,-83.18548516771958,65.5448510227469,29926.0,-83.29561132311609,65.56817432987434,32357.0,-83.42380082892,65.58969973811837,34805.0,-83.56259493344062,65.61669512056918,37093.0,-83.68991956199012,65.64114638413551
CAN,Newfoundland and Labrador / Terre-Neuve-et-Labrador,406291.9130066556,-60.17925043413291,52.60759979523496,514712.0,-54.853919188697226,48.43996644202293,519825.0,-54.793533743881596,48.41630374386195,528484.0,-54.733844354437466,48.39269848263536,535018.0,-54.67435055880945,48.36922718585701,538027.0,-54.61582175568728,48.345981598316484
CAN,Northwest Territories / Territoires du Nord-Ouest,1343750.6589715779,-118.28975077132071,65.30252448816701,43011.0,-118.01462932819793,63.17063094564676,42758.0,-117.96813048859964,63.16662055125124,42728.0,-117.91514509637084,63.15983884855607,42450.0,-117.87053932573895,63.15670922621735,41812.0,-117.8184501484423,63.14835416551046
CAN,Yukon,481829.5184935545,-135.18072547621776,63.319218349510685,27580.0,-135.1120878201815,61.0117549981499,30735.0,-135.11487092258227,61.01511782660123,34133.0,-135.11256682076848,61.01220010438187,37933.0,-135.11372106898227,61.01417603593613,41560.0,-135.112323279134,61.01185430090569
CAN,Quebec / Quebec,1507106.9961253388,-71.79145144481308,52.74494329185284,7424764.0,-72.92387179025016,46.13342235370961,7716225.0,-72.94405859586857,46.1214968249076,8072484.0,-72.96426452715613,46.10966352178436,8406587.0,-72.98460851684361,46.097876101041535,8694212.0,-73.00431962493583,46.08644770876764
CAN,Saskatchewan,651059.5717908952,-105.87299373526334,54.05245577436103,930695.0,-105.65389072770947,51.62761786800351,986437.0,-105.65851570903429,51.63342885942978,1048826.0,-105.66526844140472,51.640893923140034,1113370.0,-105.67334419806207,51.64814434856178,1173767.0,-105.6801758123284,51.653484971935946
CAN,New Brunswick / Nouveau-Brunswick,73100.96288472813,-66.37278592437262,46.60032385468663,733689.0,-65.95018405163441,46.33358276565794,749091.0,-65.9376917130578,46.311932193964935,769990.0,-65.92531150442751,46.290544141662814,787598.0,-65.91247073797614,46.269611232007115,801210.0,-65.89966657189639,46.24931728477298
CAN,NA,91163.37779991262,-83.04343205258995,45.53605934206247,0.0,0.0,0.0,0.0,0.0,0.0,0.0,0.0,0.0,0.0,0.0,0.0,0.0,0.0,0.0
AUS,Western Australia,2536343.0839820174,122.2782520753123,-25.18459887109632,1986547.0,116.2668993794801,-31.48906782407451,2107933.0,116.26694529452547,-31.488975962044325,2304387.0,116.26688238507383,-31.48902321749723,2492313.0,116.26689209071048,-31.48900872682336,2661811.0,116.26686283037698,-31.488994851035944
AUS,Australian Capital Territory,2363.138462063679,149.00276525973206,-35.48831345882755,317419.0,149.093491875442,-35.29881890354657,336842.0,149.09349445324958,-35.29882366096024,368257.0,149.09349773045446,-35.298815109698744,398288.0,149.09349982804454,-35.29881111093044,425404.0,149.09350731701005,-35.2988069388578
AUS,Northern Territory,1353601.321242379,133.36207314736822,-19.284412893742626,186830.0,132.02929114585712,-14.776143954419265,198292.0,132.02936167459927,-14.77575708776648,216813.0,132.02890399342166,-14.775054876264676,234556.0,132.02872398130077,-14.77436598916907,250560.0,132.02842702250433,-14.77365274414002
AUS,South Australia,986906.4625348466,135.76777722300284,-30.014694025619974,1418805.0,138.61437304665318,-34.84201141549321,1505431.0,138.61437831310917,-34.84202212772389,1645603.0,138.6143809391998,-34.84204177761832,1779675.0,138.61437646197052,-34.84204212387945,1900493.0,138.6143704482043,-34.842037377271616
AUS,Tasmania,68468.3564194591,146.61522255037335,-41.94694071793573,439952.0,146.97715972672964,-42.073571736597714,466823.0,146.9771274236688,-42.07354626917029,510319.0,146.97712216417568,-42.07352625982351,551917.0,146.97713914736647,-42.07352858672989,589431.0,146.97714734894438,-42.073547651624224
AUS,Victoria,227730.67614292397,144.27730333383303,-36.82808480812762,4759411.0,144.950457174378,-37.71346172283853,5050075.0,144.95045794880852,-37.71347173012009,5520470.0,144.95045197712562,-37.71347595183564,5970388.0,144.9504603987221,-37.713488423965764,6376059.0,144.95046505865926,-37.71349781786469
AUS,New South Wales,802997.6448336487,147.01566613395119,-32.09532208283494,6147825.0,150.91851431385282,-33.433234684220906,6523192.0,150.9185131881528,-33.43325041683708,7130409.0,150.91853519970152,-33.43325225587691,7711239.0,150.9185471381612,-33.43325724877538,8234982.0,150.91856965796353,-33.43326220430889
AUS,Queensland,1738048.018384106,144.45950343242842,-22.398063252509125,3845482.0,151.6909919627865,-25.76881310451976,4080645.0,151.69102128405603,-25.76883747324252,4460962.0,151.69099253159115,-25.76876355488447,4824773.0,151.69103944929344,-25.768799129471656,5152836.0,151.6910427064652,-25.768750949080097
AUS,Other Territories,218.2509174315467,116.82214168862367,-17.78684368165117,2672.0,108.52413387106049,-13.722083282295074,2835.0,108.51574745109568,-13.71380347253062,3101.0,108.48854804847913,-13.69886796722853,3352.0,108.4815927098881,-13.691423981382723,3580.0,108.45105804209749,-13.67207609433141
BRA,Paraiba,56805.72070026418,-36.83362273798157,-7.120523957288807,3564589.0,-36.07133853636802,-7.085589820194904,3774196.0,-36.051704279257436,-7.086349266939396,3921902.0,-36.03173248996826,-7.087075014435662,4040406.0,-36.01140742103718,-7.087769310193372,4125172.0,-35.990751394234444,-7.0884167653407815
BRA,Rio Grande do Sul,271721.686754965,-53.31993098305298,-29.710560612474445,10544093.0,-52.23316207571631,-29.62227849008554,10937508.0,-52.20003922616466,-29.62614926249861,11134896.0,-52.16707030821496,-29.62923396975454,11239410.0,-52.13424202426488,-29.631573447907453,11244375.0,-52.10151279214159,-29.633207207878392
BRA,Ceara,149039.96263776298,-39.61578286437135,-5.09158994915897,7694791.0,-39.16720275145955,-4.560384280254613,8307573.0,-39.15889029680304,-4.542087820401606,8800933.0,-39.15059920358277,-4.52409009512457,9242371.0,-39.14232743040803,-4.506391319342763,9617895.0,-39.13404022512013,-4.488972027424997
BRA,Mato Grosso,878846.0070928975,-55.914327554346265,-12.941450134317362,2596645.0,-55.86485795499563,-14.309471945884564,2879476.0,-55.860492769161446,-14.273636608914373,3160276.0,-55.85925077832898,-14.226164072061097,3471718.0,-55.86199484001588,-14.166945449730513,3820590.0,-55.86958646669787,-14.096370063661
BRA,Sao Paulo,246137.36156963298,-48.76037323919038,-22.233807638961366,38340189.0,-47.26205954393413,-23.00314279124948,40977157.0,-47.256481376293394,-23.002541308968297,42961612.0,-47.25122317687809,-23.001907107495796,44639585.0,-47.24632683931918,-23.001222352429007,45954427.0,-47.24178768029864,-23.000493353523765
BRA,Espirito Santo,46028.92297851267,-40.6655057537518,-19.56356073446917,3207507.0,-40.555645695070275,-20.048397182023535,3458497.0,-40.54555130437112,-20.04847580903232,3659291.0,-40.53557748514414,-20.048410373989014,3837903.0,-40.525736467609825,-20.048187240403312,3988477.0,-40.5160414450351,-20.04783345328891
BRA,Parana,199098.73719591345,-51.62480963581039,-24.619982478169117,9904540.0,-51.12681588221859,-24.710534783590532,10474628.0,-51.101836546177495,-24.71604406053236,10875269.0,-51.07788956057881,-24.721330738375862,11198884.0,-51.05467226519923,-24.72652512657096,11432130.0,-51.03224040122293,-24.731585464725836
BRA,Roraima,171376.33987125545,-61.32752893302692,2.1239190193911917,335302.0,-60.774110671672275,2.637004285746081,400046.0,-60.76477077016814,2.63665089138959,469065.0,-60.75857218076868,2.637085284945789,545889.0,-60.75521368976619,2.6382123474793246,630112.0,-60.754280703990105,2.6399096858335853
BRA,Tocantins,271985.3038281338,-48.28226511024531,-10.113259379747802,1197860.0,-48.284783382780894,-9.213436035211654,1321837.0,-48.28508281923621,-9.210841986807031,1440491.0,-48.2855092794993,-9.212560599455088,1566576.0,-48.28610754420867,-9.219020051855107,1699828.0,-48.2868779142728,-9.23055518133546
BRA,Pernambuco,98571.59842746457,-38.000033109544795,-8.325249366055415,8195490.0,-36.022132824550965,-8.192535912707628,8743787.0,-36.037336463198606,-8.197004218056072,9157200.0,-36.0537716943709,-8.201722606780065,9510095.0,-36.07147335362159,-8.206696771304394,9790853.0,-36.09045497433488,-8.211922207018462
BRA,Para,1110343.113659811,-52.94419462571219,-3.7322877722652255,6405198.0,-49.618448684449554,-2.531154469105737,7152641.0,-49.60753857694087,-2.572796347105159,7893672.0,-49.60443031344406,-2.62951537036553,8709089.0,-49.60907166472847,-2.703634326409649,9617908.0,-49.621822585317375,-2.7977038212826058
BRA,Mato Grosso do Sul,358183.60993111576,-54.845840541185034,-20.30117586668768,2150685.0,-54.62534506475695,-20.989373898395208,2362662.0,-54.61699236232502,-20.992403820638106,2550033.0,-54.608222185202365,-20.99479201301225,2731976.0,-54.599057320860574,-20.996379776249025,2904725.0,-54.58962403744905,-20.99703571573171
BRA,Goias,340430.0757000507,-49.618311063267,-16.023131607372534,5178697.0,-49.22484233292604,-16.417836880581696,5736318.0,-49.21396605828993,-16.436561537055123,6251392.0,-49.20437060710463,-16.45396308620665,6770868.0,-49.19605308923267,-16.470135880024472,7285337.0,-49.18899662109027,-16.48518438095093
BRA,Bahia,564140.577849503,-41.729148602009445,-12.449692275913888,13524307.0,-39.852308023580186,-12.920492934600594,14163520.0,-39.84301826722244,-12.904747646817285,14592554.0,-39.83536649566171,-12.892159219004636,14940187.0,-39.829425301265616,-12.882352618302239,15193056.0,-39.82528482658307,-12.87503787727909
BRA,Rio de Janeiro,42803.55991508311,-42.63060513955637,-22.173990046016122,14896204.0,-43.187506835725856,-22.702653197318156,15888933.0,-43.17881283515073,-22.70236843799401,16649335.0,-43.16805266632799,-22.701873017714647,17327610.0,-43.15445282160459,-22.701064238668796,17924252.0,-43.136899279878776,-22.699782095235058
BRA,Santa Catarina,94784.74510181528,-50.50042084170285,-27.235997082222816,5543966.0,-49.85875378178699,-27.23251594179978,6056310.0,-49.81354839070328,-27.227639336828368,6506082.0,-49.768926687589264,-27.2224911539633,6944015.0,-49.72485706716937,-27.217071311591233,7361283.0,-49.68128664636398,-27.211401836230458
BRA,NA,728552.4353214522,-60.815682696765066,-4.6669626689420936,0.0,0.0,0.0,0.0,0.0,0.0,0.0,0.0,0.0,0.0,0.0,0.0,0.0,0.0,0.0
BRA,Minas Gerais,588545.5997702802,-44.66071147048757,-18.420278755456955,18523872.0,-44.32535170517295,-19.62895804603958,19624487.0,-44.34647622762944,-19.636479552574507,20405557.0,-44.3675002274838,-19.643644556073436,21039758.0,-44.388532678207966,-19.650511821805217,21505471.0,-44.409602167191046,-19.65708173699324
BRA,Amazonas,1188112.4829498816,-64.45729393127556,-4.179250263208032,2913760.0,-61.42062273259039,-3.4944619194151776,3278442.0,-61.35869955129419,-3.4884225404377665,3627641.0,-61.31033714204299,-3.4819819396520666,3986455.0,-61.27407880567722,-3.475308468491315,4347706.0,-61.248482572202775,-3.468407317245076
BRA,Distrito Federal,5568.845722090091,-47.797201259806165,-15.78359142929521,2128759.0,-47.97775522835043,-15.822417478700935,2411455.0,-47.97775637868339,-15.822416892652015,2676181.0,-47.977755630879955,-15.822416104471731,2939176.0,-47.97775674690445,-15.822416628675416,3193481.0,-47.97775594393588,-15.822416088074359
BRA,Sergipe,21965.477621342274,-37.44488819557957,-10.581153071412125,1846549.0,-37.28885534018194,-10.78818334990404,2012876.0,-37.28553033211585,-10.78984215191756,2152673.0,-37.28215074047239,-10.791361572971203,2281650.0,-37.27871583682032,-10.792715703009444,2395812.0,-37.2752415796726,-10.79391239476382
BRA,Rio Grande do Norte,53084.65170720328,-36.674010838254446,-5.8398999885499885,2874314.0,-36.121686782124215,-5.847689093486471,3105447.0,-36.10407201866453,-5.842742854408647,3298681.0,-36.08622330923341,-5.83798721858176,3480757.0,-36.067840799102946,-5.833475163003158,3647778.0,-36.048654832046076,-5.829275117605432
BRA,Alagoas,27881.502066776447,-36.623489326878115,-9.513975037837564,2921672.0,-36.28305897164086,-9.573449557228212,3110210.0,-36.2733413343376,-9.576013614650758,3249202.0,-36.26370078241188,-9.578421342011687,3364911.0,-36.25415380232928,-9.58068678729553,3452875.0,-36.244686489387945,-9.582806031784244
BRA,Acre,158508.62561941516,-70.45848114601866,-9.180792312829304,577655.0,-69.12926823927681,-9.437919076313744,670168.0,-69.13020726964744,-9.445310418672667,763821.0,-69.13460996268057,-9.451797615712069,864078.0,-69.14302386965846,-9.457221218692363,970028.0,-69.15584512116405,-9.461482200128994
BRA,Maranhao,330157.4327577107,-45.281694743896985,-5.063183546235457,5854143.0,-44.79487062160309,-3.9829382434501,6383819.0,-44.78557738858527,-3.9665451564088134,6845337.0,-44.77744696279278,-3.950358652972236,7292977.0,-44.77059929591968,-3.9344298850769754,7718070.0,-44.76518818471571,-3.918813950508478
BRA,Amapa,98822.31985335278,-51.52594317090336,1.416087958827522,494288.0,-51.22834103833805,0.2029613074745394,592392.0,-51.232767789609255,0.2126678021379713,697134.0,-51.23814234628621,0.22410547195538744,814203.0,-51.24483480054008,0.23746289580080654,943939.0,-51.25329086617925,0.2530387196976121
BRA,Piaui,247697.97279722415,-42.9540505042882,-7.346175339182129,2942246.0,-42.43098997100764,-5.817842144984307,3120700.0,-42.43646639180681,-5.810716217833809,3246924.0,-42.44203181911993,-5.805173402352808,3347756.0,-42.44778101488466,-5.8012732652885095,3418987.0,-42.45372907665812,-5.798926176814506
BRA,Rondonia,202810.07970821398,-62.76504051035713,-10.898109925236643,1429726.0,-62.652072377241375,-10.586419000577004,1535010.0,-62.69273270992523,-10.530606722323357,1626840.0,-62.731031331846474,-10.47701767909839,1719744.0,-62.76651054416491,-10.425815019806787,1813045.0,-62.79860609590223,-10.377059023791128
USA,Montana,380656.0680878034,-109.63304749779516,46.994087664192115,907183.0,-111.21544218361714,46.80390477592014,949473.0,-111.26063571876834,46.79013653892496,990294.0,-111.2973158384827,46.777532857077695,1030030.0,-111.33046167684246,46.76482380330188,1063856.0,-111.36998724233675,46.75131466708701
USA,Massachusetts,21048.77501874784,-71.80817358830862,42.25428326482805,6383244.0,-71.36416867838284,42.27108367186036,6493280.0,-71.36369397541517,42.27142371528571,6561225.0,-71.36328659078576,42.271716404400806,6577976.0,-71.3633291212822,42.271912601909456,6561883.0,-71.36261816532149,42.272298221032344
USA,New Mexico,315686.4181274109,-106.11259866141482,34.381278744855585,1828528.0,-106.34740004536054,34.61033628718957,1945962.0,-106.34972415157267,34.61547392762653,2061958.0,-106.35468563326594,34.62217373892294,2176206.0,-106.35977864315426,34.628869137940214,2285746.0,-106.36501364458373,34.63501326615002
USA,California,410766.49600478966,-119.47279640340803,37.11319589150275,34054393.0,-119.35679308006296,35.433353923328696,35723393.0,-119.34198338293393,35.435748203998216,37348075.0,-119.3249511859968,35.43650355333418,38774470.0,-119.30684928340082,35.43750121349396,40080172.0,-119.28652919387002,35.43707880240931
USA,Kansas,213425.56558335747,-98.3785631108148,38.469279600316526,2699269.0,-96.53621252211292,38.44972110859861,2778464.0,-96.49797609608746,38.45539466880558,2856299.0,-96.46190975110737,38.46157311945098,2923651.0,-96.42785479827447,38.467618873934796,2967818.0,-96.3903659370072,38.47435251546517
USA,Oklahoma,181432.41679607157,-97.49354884702619,35.567845398594464,3471604.0,-96.83416621521802,35.59669676716083,3621659.0,-96.83489070848223,35.596186761437004,3755812.0,-96.83679175931765,35.59587493314183,3877177.0,-96.83940407204278,35.59537378377442,3981040.0,-96.84205292898241,35.594700625602876
USA,South Dakota,199758.3077411629,-100.226887105691,44.416963663639606,758567.0,-99.0442384481415,44.04249590084895,786164.0,-99.02814794153902,44.02670386437079,814935.0,-99.00192743537492,44.00958002738636,844926.0,-98.96647860875161,43.99142402598096,874004.0,-98.92128653150115,43.97054241017397
USA,Idaho,216478.1079569906,-114.6126783406448,44.3136028380045,1301601.0,-115.13619337515456,44.21776929191672,1432527.0,-115.15764251004467,44.205725976104816,1569450.0,-115.17923919231794,44.19409779909695,1715183.0,-115.20031416488249,44.18211756177665,1868609.0,-115.22091281392231,44.17015306800054
USA,Tennessee,109385.07107648945,-86.35073800670118,35.838946868984976,5723023.0,-86.39322363256252,35.79466748263097,6045560.0,-86.37535103848764,35.80057498384407,6356996.0,-86.35911185861988,35.80664884702368,6651517.0,-86.34358984581947,35.812902453384666,6932469.0,-86.3285647383391,35.81932564788394
USA,South Carolina,80612.02134828421,-80.89258873853498,33.90122379611447,4033979.0,-81.03236970096685,34.03196240930208,4331915.0,-81.02237507425426,34.02704604346805,4633173.0,-81.01101572842573,34.02161868962227,4933940.0,-80.9983059825882,34.01588447038413,5232367.0,-80.98428477662758,34.009861373911775
USA,Missouri,180821.32083653446,-92.45794887953974,38.33733187554212,5629009.0,-92.15534357622653,38.43180796349445,5824029.0,-92.17846070208563,38.424985642249524,5997190.0,-92.19808413336793,38.41882078918804,6150190.0,-92.2174978168535,38.412300524939226,6282193.0,-92.2375270204644,38.40547958683445
USA,Connecticut,12884.839772711006,-72.7264093897366,41.62070763628273,3424382.0,-72.8745557195061,41.49495749647161,3512386.0,-72.8724667187728,41.49573128750096,3582200.0,-72.87041083730944,41.49647161085724,3622483.0,-72.86815943186015,41.49730416088237,3641005.0,-72.86595953877743,41.49813097740329
USA,Mississippi,123840.35966399917,-89.66770461006367,32.724220693689674,2859203.0,-89.59357161620983,32.556696295384654,2917123.0,-89.58543976104522,32.56603493335269,2971421.0,-89.57957378119275,32.57958548805662,3021194.0,-89.57556036399782,32.597474286592075,3063027.0,-89.5732070343897,32.61961423062376
USA,Washington,174979.20014802998,-120.44773580261294,47.357759667161886,5927220.0,-121.62006178374041,47.33586871861519,6336203.0,-121.62035831801008,47.331044018514916,6737631.0,-121.62088483231219,47.32592141057256,7114242.0,-121.61954606501746,47.3202268064141,7469021.0,-121.61740139735761,47.3139736384041
USA,Texas,692818.6942226702,-99.31285752926263,31.38987731458153,20962502.0,-97.39120830163087,30.92795042412928,22998006.0,-97.37824827484495,30.90574784395514,25192809.0,-97.36391915474714,30.884906987824188,27512519.0,-97.34900044718037,30.86686094976855,29977347.0,-97.33185982506052,30.85092948788869
USA,Wyoming,253456.4531140434,-107.5514055140898,42.967117403260296,497287.0,-107.00709637659783,42.66602321053672,531645.0,-107.01331818438406,42.67487139739401,564089.0,-107.01903878315306,42.68405421717877,596847.0,-107.02697627069335,42.69467099920278,629514.0,-107.0362980184774,42.70766238724353
USA,District of Columbia,177.25287669089005,-77.01627459038677,38.904743642166565,575130.0,-77.01447076306216,38.91026944804448,590425.0,-77.01447592607333,38.91027140400581,603445.0,-77.01447390462948,38.91026108855074,610860.0,-77.01447230193294,38.9102698027627,614494.0,-77.01447338873467,38.91027041248722
USA,Nevada,286762.0177327299,-116.63135280145148,39.29812525410857,2008984.0,-116.31174012299302,37.14756420755999,2335890.0,-116.24992704416967,37.08604738480708,2706795.0,-116.19074929869254,37.02723942636395,3116556.0,-116.13586084795767,36.97353564046871,3571033.0,-116.0838315045687,36.92387199203893
USA,North Dakota,183005.6820634502,-100.46591630771218,47.42410182851908,644006.0,-99.3336910655608,47.3688869419459,658064.0,-99.32413488372858,47.356073923076394,673180.0,-99.30870286657925,47.34323429665766,687184.0,-99.29218064690863,47.330418374998665,695355.0,-99.27589960265276,47.316917660329906
USA,Florida,151534.1584155017,-82.44710123582033,28.58223601125386,16067736.0,-81.63380522898275,27.781905458192895,17422213.0,-81.6336368570431,27.79649175350783,18838706.0,-81.63415120245082,27.811765622422627,20271358.0,-81.63576496685552,27.828438441068638,21725691.0,-81.63772946609103,27.846357075819217
USA,Utah,220178.7248839034,-111.67019679855319,39.28356144494853,2245285.0,-111.90930441029565,40.43051775054311,2497525.0,-111.91792492550861,40.413009736662524,2768907.0,-111.92706002258294,40.393794004380034,3054227.0,-111.93667187522149,40.37215085902106,3354212.0,-111.94666863279906,40.34823241273677
USA,Ohio,116223.4902999551,-82.71691327030913,40.39745697332889,11410154.0,-82.7503629891508,40.474495920866495,11501058.0,-82.7617515115176,40.46210001122326,11555368.0,-82.77343759503758,40.44954902748928,11553345.0,-82.78548159162206,40.43666980689791,11486779.0,-82.79834743398331,40.42291868880254
USA,North Carolina,128177.5325740359,-79.38644547791202,35.536069828861116,8092130.0,-79.66979041268965,35.55202942047843,8805858.0,-79.66464861905743,35.54681756804842,9553968.0,-79.65827181198893,35.54139343416685,10323352.0,-79.65150930465542,35.535762897398044,11119883.0,-79.64505792031733,35.529833378423966
USA,Maine,84131.60852970106,-69.24436338230672,45.355843970952506,1282120.0,-69.72450858661377,44.306469823295835,1310544.0,-69.73107678193503,44.30008340493934,1330274.0,-69.73666014330551,44.29440942447044,1341362.0,-69.741685984158,44.28935719371119,1344134.0,-69.74782961599884,44.28349144128407
USA,New Hampshire,24033.294930084823,-71.58076936980022,43.67520668841631,1243154.0,-71.46345012378066,43.15230303481254,1284719.0,-71.46282408383198,43.152958343090894,1318701.0,-71.46186901749934,43.153472747376235,1343843.0,-71.46106804418356,43.154330224400795,1361167.0,-71.46037241889667,43.1550620932724
USA,Maryland,25906.776432829512,-76.77614282377768,39.04013528518989,5325344.0,-76.79780497687814,39.145970195093,5563773.0,-76.79762299126551,39.142932259212984,5786504.0,-76.79780176269847,39.140032986988174,5973506.0,-76.79793660448271,39.1371949764103,6132036.0,-76.79769121374817,39.13421751097669
USA,Pennsylvania,119395.86907135235,-77.83702055281415,40.88635329857427,12341577.0,-77.07625938966464,40.461355870325164,12554903.0,-77.0423553203058,40.45781850581768,12721418.0,-77.00905526684558,40.45445820458861,12815530.0,-76.97706930833643,40.45154292922108,12814601.0,-76.94415195008138,40.44811444386565
USA,Kentucky,104838.42526466561,-85.30175940606676,37.519554640767346,4063720.0,-85.24075148697611,37.80530917827188,4210944.0,-85.2450053143861,37.81351170037739,4347381.0,-85.24804013798247,37.821935813062254,4463750.0,-85.25102316043721,37.830175656577936,4560196.0,-85.2525339130612,37.83920022029664
USA,Oregon,251379.74414493356,-120.56120917967216,43.90402839632109,3440945.0,-122.58044048461083,44.72353766952174,3644421.0,-122.58358627597384,44.72872004464988,3837645.0,-122.58565128279407,44.7342033619661,4015669.0,-122.58648155814512,44.73904595129655,4177752.0,-122.58718201447537,44.74337201407069
USA,New York,137229.22660552282,-75.68318474843429,42.95696726874909,19074339.0,-74.64434247960664,41.498909761214634,19293247.0,-74.63200869814031,41.49564785184238,19424560.0,-74.62000811175523,41.4920203623931,19392585.0,-74.6096166360495,41.490029982065124,19230324.0,-74.59772325514257,41.48705486608631
USA,West Virginia,62849.085239687694,-80.6236868484237,38.633213043354935,1816403.0,-80.81864145605925,38.76384189769079,1837754.0,-80.77622456950752,38.77746108550145,1855460.0,-80.7313570374465,38.79146797115105,1866178.0,-80.68260071559332,38.806504694958036,1864837.0,-80.62743769140617,38.823298650360826
USA,Michigan,250499.24611868567,-85.6642097265685,44.795417716609975,9992178.0,-84.17450781387937,42.85867307050207,9962462.0,-84.18932411207705,42.86273720505377,9897749.0,-84.20321679456231,42.86644043029371,9780438.0,-84.21711327415505,42.87030818643733,9592652.0,-84.23066996174265,42.87369912091234
USA,Colorado,269982.80403562915,-105.54773217461303,38.97026176136101,4326228.0,-105.19982934386344,39.49798879127791,4675525.0,-105.20465265687722,39.50413431167256,5037595.0,-105.20789895488676,39.51010937113019,5409768.0,-105.21014411729304,39.51599813566519,5789836.0,-105.2120081662477,39.52187337876771
USA,Louisiana,125672.83309599748,-91.91078738585406,31.003376181284967,4493329.0,-91.45872332636337,30.69475093655531,4515132.0,-91.48732429148797,30.70800783273395,4540425.0,-91.50874239704709,30.71800351651824,4563402.0,-91.52403198128583,30.725260249865872,4576296.0,-91.53347989444961,30.72943285479145
USA,Illinois,150168.5202663163,-89.14995258484791,40.082109860088025,12480951.0,-88.38340470230932,41.269311867886984,12677959.0,-88.3868983519454,41.2728242097551,12848918.0,-88.39012259866216,41.27678926191884,12982681.0,-88.39328877748842,41.28115367375092,13060033.0,-88.39536395043099,41.28795245172391
USA,Rhode Island,3070.3405244262212,-71.5376128347374,41.67284610532005,1054758.0,-71.44986136217474,41.75336441272385,1055812.0,-71.45039250820192,41.75322269298782,1054361.0,-71.45084592097827,41.75343451398198,1045391.0,-71.45129359482934,41.7536633278046,1026910.0,-71.45184943368562,41.75352947091645
USA,Vermont,24911.983776217454,-72.66596741221625,44.06505258324475,612182.0,-72.81399731100119,44.07850595851166,621198.0,-72.81517072986881,44.085920726822565,626659.0,-72.81666606773285,44.091937687964496,628248.0,-72.81788498177401,44.09761917448284,625704.0,-72.81898723898128,44.10455586754232
USA,Delaware,5230.707313152494,-75.49998011850137,38.98873315341637,787785.0,-75.56398356688024,39.38840763145924,843459.0,-75.56046367095836,39.37321219963392,899556.0,-75.55689096218944,39.35769684847547,953638.0,-75.55320242429939,39.34179094564064,1005288.0,-75.54951788832285,39.32577015753204
USA,Arizona,295962.63172586274,-111.660252422522,34.25039740197134,5158846.0,-111.8433216733596,33.36453834401722,5754775.0,-111.8544980661274,33.3650637755819,6403270.0,-111.86423380463135,33.36395987450613,7106293.0,-111.87234836304285,33.36235969574208,7874542.0,-111.87788810804273,33.359531156358834
USA,Iowa,145847.71060188257,-93.49592985421489,42.05875396459045,2937974.0,-93.04751871685565,41.95705806602646,2996478.0,-93.0397713749124,41.94961812727739,3049502.0,-93.03634510996154,41.94261793138262,3093644.0,-93.0347463927237,41.93551340442577,3113964.0,-93.03136682796112,41.92724010137707
USA,Arkansas,138053.16568624473,-92.4429264507381,34.88225074685187,2687322.0,-92.57977969357272,35.077156235360874,2804199.0,-92.6175800686145,35.10779762128144,2919754.0,-92.65538137500234,35.138170144901515,3035034.0,-92.69361135935627,35.16908393226489,3145359.0,-92.73346225517574,35.20111017397253
USA,Nebraska,200494.48769023642,-99.79487228984262,41.51102648452064,1718056.0,-97.4049897168234,41.18120654780048,1773087.0,-97.35706606612044,41.17646119934971,1827915.0,-97.31435942663244,41.17227165794627,1878941.0,-97.27365939931641,41.16836291186077,1913426.0,-97.22766607922593,41.16394367742694
USA,New Jersey,20079.190751666392,-74.66473432791096,40.17992052490252,8460513.0,-74.42955121398126,40.436370877178405,8659341.0,-74.43077364481476,40.43344689563521,8810174.0,-74.43209942156132,40.4303274799881,8896439.0,-74.43370126902482,40.4267588212846,8933442.0,-74.43484811422381,40.423635376158956
USA,Alabama,134237.58679649414,-86.8296457314038,32.76600925945976,4469067.0,-86.76605223753633,32.99016775534098,4632887.0,-86.76116214232576,32.993951209656096,4786764.0,-86.75687727624778,32.998161169327155,4926334.0,-86.75271727569545,33.002225139095636,5045139.0,-86.74848095978486,33.005221306112645
USA,Georgia,152951.21218129483,-83.43705545248643,32.625581627333844,8231403.0,-83.8685671108511,33.32759660794873,8941071.0,-83.8752747602649,33.349221463720376,9708952.0,-83.88301188360842,33.3718252794426,10515313.0,-83.89119630601893,33.394193066752706,11379585.0,-83.90045053254738,33.417528099158645
USA,Wisconsin,169652.0641740724,-89.70961334827967,44.60514219237165,5396096.0,-89.00177880168793,43.720624691929984,5557811.0,-89.01071782181904,43.71764822937226,5693933.0,-89.01852655248277,43.71448190368929,5800852.0,-89.02809097162555,43.71258117579405,5871258.0,-89.03892121157415,43.71084679217334
USA,Indiana,94439.40885570191,-86.28729885951635,39.89447837711622,6114955.0,-86.26113019132895,40.153700912339815,6312614.0,-86.26039769130986,40.14744518912072,6492516.0,-86.25952695409632,40.14075336364099,6652644.0,-86.25857990701263,40.13393143935364,6784797.0,-86.2575695864808,40.126611324913505
USA,Minnesota,225095.49765565514,-94.19903574037532,46.28123182120899,4944345.0,-93.58182526305335,45.20284190978895,5133567.0,-93.57623018569588,45.199481311999264,5311455.0,-93.57158579797992,45.195795676340886,5470809.0,-93.56816192688173,45.192438508587394,5606366.0,-93.56385942309173,45.18872283332511
USA,Hawaii,16739.993562976935,-156.3346263767714,20.239463777197322,1217863.0,-157.52793249183313,21.14025157702616,1291674.0,-157.50638295000894,21.127222321869567,1364242.0,-157.48473637454543,21.114185399458737,1428250.0,-157.46158921762733,21.100164365801593,1487142.0,-157.43795802921005,21.085841831707697
USA,Alaska,1507563.7903218635,-152.4267348325852,63.42718755588776,630328.0,-148.71503136659686,61.180698459630975,670474.0,-148.8012630435172,61.240411534669995,711724.0,-148.87949408001674,61.29771572195146,752385.0,-148.9512478667609,61.353767850884964,792996.0,-149.02001644446833,61.40784842578219
USA,Virginia,103992.50158363629,-78.84793835382469,37.506701492248624,7117756.0,-77.83772753858595,37.74585121234113,7558255.0,-77.82466194081705,37.77472635343111,8018093.0,-77.8105327214163,37.80590886191002,8481514.0,-77.79692301097747,37.83895851331207,8966479.0,-77.78221500849807,37.87487965894036
